"Country","State","City","Population","Latitude","Longitude","Elevation"
"Russia","Moscow","Moscow",13010112,55.75,37.62,1.3e2
"Russia","SaintPetersburg","SaintPetersburg",4879566,59.93,30.32,13.
"Russia","Novosibirsk","Novosibirsk",1602915,55.04,82.93,1.6e2
"Russia","Sverdlovsk","Yekaterinburg",1343839,56.85,60.6,2.5e2
"Russia","NizhnyNovgorod","NizhnyNovgorod",1266871,56.33,44.,95.
"Russia","Tatarstan","Kazan",1243500,55.75,49.13,56.
"Russia","Omsk","Omsk",1178391,55.,73.4,80.
"Russia","Samara","Samara",1170910,53.2,50.15,1.e2
"Russia","Rostov","RostovNaDonu",1119875,47.24,39.71,71.
"Russia","Bashkortostan","Ufa",1110976,54.78,56.04,1.8e2
"Russia","Chelyabinsk","Chelyabinsk",1095909,55.15,61.43,2.2e2
"Russia","Voronezh","Voronezh",1032382,51.72,39.26,95.
"Russia","Volgograd","Volgograd",1016137,48.71,44.480000000000004,46.
"Russia","Perm","Perm",986497,58.,56.25,1.6e2
"Russia","Krasnoyarsk","Krasnoyarsk",962466,56.02,93.06,1.5e2
"Russia","Saratov","Saratov",843460,51.57,46.03,1.3e2
"Russia","Samara","Tolyatti",721752,53.480000000000004,49.51,51.
"Russia","Krasnodar","Krasnodar",713426,45.03,38.980000000000004,27.
"Russia","Udmurtia","Izhevsk",646277,56.85,53.230000000000004,1.5e2
"Russia","AltaiKrai","Barnaul",635585,53.36,83.75,1.7e2
"Russia","Ulyanovsk","Ulyanovsk",624518,54.33,48.4,1.8e2
"Russia","Yaroslavl","Yaroslavl",608079,57.620000000000005,39.87,95.
"Russia","Dagestan","Makhachkala",592976,42.980000000000004,47.5,7.
"Russia","Primorski","Vladivostok",583673,43.13,131.9,55.
"Russia","Irkutsk","Irkutsk",578073,52.33,104.24000000000001,4.3e2
"Russia","KhabarovskKrai","Khabarovsk",578060,48.42,135.12,56.
"Russia","Kemerovo","Novokuznetsk",562402,53.75,87.10000000000001,2.4e2
"Russia","Kemerovo","Kemerovo",553076,55.33,86.08,1.3e2
"Russia","Tyumen","Tyumen",542463,57.15,65.53,80.
"Russia","Ryazan","Ryazan",537622,54.620000000000005,39.74,1.2e2
"Russia","Orenburg","Orenburg",533872,51.78,55.1,1.e2
"Russia","Yaroslavl","Orenberg",525637,51.783333,55.1,1.4e2
"Russia","Penza","Penza",509997,53.2,45.,1.8e2
"Russia","Tula","Tula",509010,54.2,37.61,1.6e2
"Russia","Tatarstan","NaberezhnyeChelny",507180,55.69,52.32,66.
"Russia","Lipetsk","Lipetsk",502821,52.620000000000005,39.62,1.2e2
"Russia","Astrakhan","Astrakhan",498953,46.35,48.050000000000004,-18.
"Russia","Tomsk","Tomsk",489879,56.5,84.97,1.1e2
"Russia","Kirov","Kirov",468459,58.6,49.660000000000004,1.7e2
"Russia","Kaliningrad","Kaliningrad",459560,54.71,20.5,-6.
"Russia","Kursk","Kursk",449063,51.730000000000004,36.19,1.8e2
"Russia","Chuvashia","Cheboksary",442387,56.13,47.25,1.2e2
"Russia","Bryansk","Bryansk",419967,53.26,34.42,1.5e2
"Russia","Chelyabinsk","Magnitogorsk",413208,53.42,58.97,3.9e2
"Russia","Ivanovo","Ivanovo",413068,57.01,40.99,1.2e2
"Russia","Tver","Tver",405618,56.86,35.89,1.3e2
"Russia","Sverdlovsk","NizhniyTagil",379724,57.92,59.97,2.e2
"Russia","Stavropol","Stavropol",358399,45.04,41.97,5.7e2
"Russia","Vladimir","Vladimir",354827,56.14,40.4,1.5e2
"Russia","Arkhangelsk","Arkhangelsk",349772,64.57000000000001,40.53,0
"Russia","Buryatia","UlanUde",347819,51.83,107.62,5.3e2
"Russia","Belgorod","Belgorod",344242,50.61,36.59,1.6e2
"Russia","Kurgan","Kurgan",329981,55.45,65.33,74.
"Russia","Krasnodar","Sochi",329481,43.6,39.730000000000004,14.
"Russia","Kaluga","Kaluga",329064,54.54,36.27,2.e2
"Russia","Orel","Oryol",325945,52.97,36.08,1.5e2
"Russia","Vologda","Cherepovets",318856,59.13,37.9,1.4e2
"Russia","Smolensk","Smolensk",317915,54.78,32.04,2.4e2
"Russia","NorthOssetia","Vladikavkaz",314073,43.04,44.68,6.8e2
"Russia","Volgograd","Volzhskiy",308490,48.79,44.77,23.
"Russia","Zabaykalsky","Chita",306239,52.050000000000004,113.46000000000001,6.5e2
"Russia","Murmansk","Murmansk",298096,68.96000000000001,33.08,36.
"Russia","Mordovia","Saransk",297077,54.18,45.18,1.5e2
"Russia","KhantyMansi","Surgut",290598,61.25,73.42,37.
"Russia","Tambov","Tambov",290365,52.730000000000004,41.43,1.3e2
"Russia","Vologda","Vologda",287001,59.22,39.9,1.2e2
"Russia","Bashkortostan","Sterlitamak",280233,53.63,55.95,1.5e2
"Russia","Kostroma","Kostroma",277648,57.77,40.93,1.1e2
"Russia","KabardinoBalkaria","Nalchik",271447,43.5,43.62,4.7e2
"Russia","MariEl","YoshkarOla",266675,56.64,47.870000000000005,1.e2
"Russia","Karelia","Petrozavodsk",265072,61.82,34.33,23.
"Russia","Irkutsk","Bratsk",254878,56.300000000000004,101.71000000000001,4.3e2
"Russia","Rostov","Taganrog",250287,47.22,38.910000000000004,25.
"Russia","KhabarovskKrai","KomsomolskNaAmure",248254,50.56,137.,32.
"Russia","Rostov","Shakhty",247736,47.71,40.21,1.e2
"Russia","Orenburg","Orsk",247002,51.21,58.63,2.1e2
"Russia","KhantyMansi","Nizhnevartovsk",240834,60.93,76.57000000000001,45.
"Russia","Yakutia","Yakutsk",239225,62.03,129.73,1.3e2
"Russia","Tatarstan","Nizhnekamsk",237250,55.64,51.82,1.2e2
"Russia","NizhnyNovgorod","Dzerzhinsk",231797,56.24,43.46,90.
"Russia","Krasnodar","Novorossiysk",230702,44.72,37.77,15.
"Russia","Komi","Syktyvkar",229305,61.67,50.81,1.5e2
"Russia","Moscow","Zelenograd",228294,55.94,37.29,1.7e2
"Russia","Irkutsk","Angarsk",226374,52.57,103.91,4.3e2
"Russia","Novgorod","VelikiyNovgorod",222594,58.52,31.28,24.
"Russia","Chechnya","Groznyy",218193,43.31,45.7,1.3e2
"Russia","Belgorod","StaryyOskol",218189,51.300000000000004,37.84,1.6e2
"Russia","Krasnoyarsk","Norilsk",213153,69.34,88.22,1.1e2
"Russia","Amur","Blagoveshchensk",212183,50.27,127.53,1.3e2
"Russia","AltaiKrai","Biysk",203108,52.53,85.17,1.8e2
"Russia","Saratov","Balakovo",199187,52.03,47.78,28.
"Russia","Pskov","Pskov",197047,57.83,28.330000000000002,45.
"Russia","Kemerovo","Prokopyevsk",196406,53.9,86.71000000000001,3.1e2
"Russia","Saratov","Engels",194824,51.5,46.12,16.
"Russia","Krasnodar","Armavir",190703,44.99,41.12,2.e2
"Russia","MoskovskayaOblast","Lyubertsy",190480,55.67,37.89,1.3e2
"Russia","Yaroslavl","Rybinsk",190429,58.050000000000004,38.83,1.e2
"Russia","Chelyabinsk","Zlatoust",190340,55.17,59.65,5.2e2
"Russia","Arkhangelsk","Severodvinsk",183996,64.57000000000001,39.83,8.
"Russia","MoskovskayaOblast","Balashikha",182772,55.800000000000004,37.95,1.5e2
"Russia","Sverdlovsk","KamenskUralskiy",182466,56.410000000000004,61.93,1.5e2
"Russia","Khakasia","Abakan",181709,53.72,91.43,2.5e2
"Russia","Kamchatka","PetropavlovskKamchatskiy",180454,53.02,158.65,30.
"Russia","MoskovskayaOblast","Khimki",180075,55.89,37.44,1.8e2
"Russia","MoskovskayaOblast","Podolsk",179525,55.42,37.54,1.6e2
"Russia","Rostov","Novocherkassk",179461,47.42,40.09,88.
"Russia","Sakhalin","YuzhnoSakhalinsk",173364,46.95,142.74,39.
"Russia","Samara","Syzran",173260,53.17,48.47,59.
"Russia","MoskovskayaOblast","Korolyov",172781,55.92,37.82,1.6e2
"Russia","Primorski","Nakhodka",171666,42.83,132.89000000000001,17.
"Russia","Rostov","Volgodonsk",170832,47.51,42.15,51.
"Russia","MoskovskayaOblast","Mytishchi",161811,55.910000000000004,37.730000000000004,1.5e2
"Russia","AltaiRepublic","Rubtsovsk",158584,51.53,81.2,2.2e2
"Russia","Adygeya","Maykop",156768,44.61,40.11,2.3e2
"Russia","Primorski","Ussuriysk",154755,43.800000000000004,132.01,21.
"Russia","Chelyabinsk","Miass",154519,55.,60.09,3.3e2
"Russia","Tatarstan","Almetyevsk",154262,54.9,52.31,1.4e2
"Russia","Bashkortostan","Salavat",153181,53.370000000000005,55.92,1.5e2
"Russia","MoskovskayaOblast","Kolomna",148020,55.08,38.78,1.4e2
"Russia","MoskovskayaOblast","Elektrostal",146189,55.79,38.44,1.6e2
"Russia","Stavropol","Pyatigorsk",145971,44.050000000000004,43.06,5.4e2
"Russia","Perm","Berezniki",145115,59.410000000000004,56.77,1.1e2
"Russia","SaintPetersburg","Kolpino",144901,59.75,30.6,17.
"Russia","Vladimir","Kovrov",138552,56.36,41.32,1.3e2
"Russia","Chelyabinsk","Kopeysk",137813,55.11,61.65,2.e2
"Russia","Ingushetia","Nazran",136991,43.21,44.800000000000004,5.3e2
"Russia","Sverdlovsk","Pervouralsk",132881,56.910000000000004,59.95,3.5e2
"Russia","MoskovskayaOblast","Odintsovo",131762,55.67,37.29,1.9e2
"Russia","Stavropol","Kislovodsk",129861,43.910000000000004,42.72,8.4e2
"Russia","Dagestan","Khasavyurt",128381,43.25,46.59,1.4e2
"Russia","Tula","Novomoskovsk",125647,54.09,38.22,2.1e2
"Russia","Chuvashia","Novocheboksarsk",125472,56.120000000000005,47.5,96.
"Russia","MoskovskayaOblast","Serpukhov",125010,54.92,37.410000000000004,1.5e2
"Russia","Rostov","Bataysk",124705,47.14,39.75,7.
"Russia","Dagestan","Derbent",123008,42.06,48.29,26.
"Russia","Vladimir","Murom",122123,55.57,42.04,1.2e2
"Russia","MoskovskayaOblast","OrekhovoZuevo",122117,55.82,38.980000000000004,1.2e2
"Russia","Bashkortostan","Neftekamsk",118740,56.08,54.27,89.
"Russia","Stavropol","Nevinnomyssk",117676,44.63,41.95,3.3e2
"Russia","Volgograd","Kamyshin",117297,50.1,45.4,13.
"Russia","KarachaiCherkessRepublic","Cherkessk",116947,44.29,42.06,4.9e2
"Russia","MoskovskayaOblast","Zheleznodorozhnyy",116456,55.75,38.0167,"null"
"Russia","MoskovskayaOblast","Noginsk",116277,55.85,38.44,1.5e2
"Russia","Ulyanovsk","Dimitrovgrad",116055,54.25,49.550000000000004,1.3e2
"Russia","Tyva","Kyzyl",116015,51.71,94.38,6.1e2
"Russia","Rostov","Novoshakhtinsk",115266,47.75,39.94,1.1e2
"Russia","Bashkortostan","Oktyabrskiy",113929,54.47,53.46,1.4e2
"Russia","Kaluga","Obninsk",113639,55.1,36.61,1.8e2
"Russia","Dagestan","Kaspiysk",113348,42.88,47.64,-16.
"Russia","KhantyMansi","Nefteyugansk",112975,61.08,72.7,33.
"Russia","MoskovskayaOblast","Shchyolkovo",112860,55.9,38.02,1.5e2
"Russia","MoskovskayaOblast","SergiyevPosad",112700,56.32,38.13,2.2e2
"Russia","YamaloNenets","NovyyUrengoy",112505,66.09,76.51,53.
"Russia","YamaloNenets","Noyabrsk",108450,63.17,75.62,1.3e2
"Russia","Kemerovo","LeninskKuznetskiy",107858,54.660000000000004,86.16,2.2e2
"Russia","Tomsk","Seversk",107552,56.61,84.83,88.
"Russia","Krasnoyarsk","Achinsk",105364,56.28,90.5,1.9e2
"Russia","Lipetsk","Yelets",105016,52.6,38.51,1.2e2
"Russia","NizhnyNovgorod","Arzamas",104785,55.38,43.82,1.2e2
"Russia","Orenburg","Novotroitsk",103927,51.21,58.32,2.1e2
"Russia","Samara","NovayaSamara",103908,53.11,49.93,89.
"Russia","Kalmykia","Elista",103034,46.32,44.21,1.2e2
"Russia","Primorski","Artyom",102603,43.36,132.18,53.
"Russia","Pskov","VelikieLuki",102357,56.34,30.53,99.
"Russia","MoskovskayaOblast","Zhukovskiy",101271,55.550000000000004,38.25,1.2e2
"Russia","Tyumen","Tobolsk",100583,58.2,68.27,95.
"Russia","Magadan","Magadan",100020,59.57,150.8,61.
"Russia","Udmurtia","Sarapul",99906,56.47,53.800000000000004,1.1e2
"Russia","Tatarstan","Zelenodolsk",99216,55.84,48.660000000000004,55.
"Russia","MoskovskayaOblast","Krasnogorsk",98822,55.83,37.33,1.7e2
"Russia","Udmurtia","Votkinsk",98063,57.04,53.99,81.
"Russia","Sverdlovsk","Serov",98044,59.61,60.58,1.3e2
"Russia","Kemerovo","Mezhdurechensk",97895,53.69,88.06,2.4e2
"Russia","Komi","Ukhta",97806,63.56,53.69,89.
"Russia","MoskovskayaOblast","Pushkino",96938,56.,37.83,1.5e2
"Russia","Kursk","Zheleznogorsk",96436,52.35,35.410000000000004,2.2e2
"Russia","Rostov","KamenskShakhtinskiy",95742,48.32,40.26,57.
"Russia","Saratov","Balashov",94986,51.550000000000004,43.17,1.5e2
"Russia","Perm","Solikamsk",94628,59.64,56.75,1.4e2
"Russia","Sverdlovsk","Novouralsk",94350,57.25,60.08,3.e2
"Russia","Tambov","Michurinsk",93690,52.9,40.5,1.5e2
"Russia","Udmurtia","Glazov",93628,58.14,52.660000000000004,1.5e2
"Russia","Novosibirsk","Berdsk",91857,54.76,83.08,1.3e2
"Russia","Kemerovo","Kiselyovsk",90980,53.980000000000004,86.65,3.2e2
"Russia","MoskovskayaOblast","Voskresensk",90888,55.31,38.7,1.3e2
"Russia","Krasnoyarsk","Kansk",90231,56.2,95.71000000000001,2.e2
"Russia","Penza","Kuznetsk",89541,53.120000000000005,46.6,2.3e2
"Russia","Leningrad","Gatchina",88842,59.57,30.13,96.
"Russia","NizhnyNovgorod","Sarov",87755,55.38,43.83,1.2e2
"Russia","Orenburg","Buzuluk",87680,52.78,52.26,71.
"Russia","Chelyabinsk","Ozyorsk",87541,55.76,60.7,2.4e2
"Russia","Kirov","KirovoChepetsk",87182,58.550000000000004,50.04,1.7e2
"Russia","Krasnodar","Yeysk",87064,46.7,38.27,16.
"Russia","Belgorod","Gubkin",86180,51.28,37.39,1.7e2
"Russia","Tatarstan","Bugulma",86085,54.550000000000004,52.800000000000004,3.e2
"Russia","Krasnoyarsk","Zheleznogorsk",84860,56.25,93.53,1.5e2
"Russia","Perm","Chaykovskiy",84105,56.78,54.15,1.1e2
"Russia","Ivanovo","Kineshma",83871,57.44,42.13,1.e2
"Russia","Kemerovo","AnzheroSudzhensk",83861,56.08,86.04,2.3e2
"Russia","Kemerovo","Yurga",83466,55.72,84.89,1.6e2
"Russia","Chelyabinsk","Troitsk",82676,54.1,61.57,1.7e2
"Russia","Rostov","Azov",82591,47.11,39.410000000000004,41.
"Russia","Irkutsk","UstIlimsk",82455,58.,102.66,3.e2
"Russia","MoskovskayaOblast","Klin",82419,56.34,36.7,1.5e2
"Russia","SaintPetersburg","Pushkin",82416,59.72,30.42,44.
"Russia","MoskovskayaOblast","Ramenskoye",81003,55.49,38.35,1.1e2
"Russia","Stavropol","Yessentuki",80989,44.04,42.85,6.2e2
"Russia","MoskovskayaOblast","Reutov",80036,55.76,37.86,1.6e2
"Russia","Leningrad","Vyborg",79962,60.7,28.75,11.
"Russia","Krasnodar","Kropotkin",79844,45.44,40.58,81.
"Russia","Kurgan","Shadrinsk",79519,56.08,63.64,79.
"Russia","Komi","Vorkuta",79205,67.5,64.,1.7e2
"Russia","MoskovskayaOblast","Dolgoprudnyy",78415,55.93,37.51,1.9e2
"Russia","Irkutsk","UsolyeSibirskoye",77989,52.76,103.63,4.5e2
"Russia","Kemerovo","Belovo",77940,54.42,86.3,2.1e2
"Russia","NizhnyNovgorod","Bor",77679,56.35,44.09,81.
"Russia","Stavropol","MineralnyyeVody",75811,44.21,43.13,3.1e2
"Russia","JewishRepublic","Birobidzhan",75192,48.800000000000004,132.95,78.
"Russia","AltaiKrai","Novoaltaysk",73889,53.4,83.96000000000001,1.4e2
"Russia","Khakasia","Chernogorsk",73187,53.83,91.22,3.4e2
"Russia","MoskovskayaOblast","Chekhov",73117,55.15,37.480000000000004,1.8e2
"Russia","Samara","Chapaevsk",72948,52.980000000000004,49.72,48.
"Russia","Sverdlovsk","Asbest",72822,57.02,61.46,2.1e2
"Russia","MoskovskayaOblast","NaroFominsk",70677,55.39,36.74,1.6e2
"Russia","Tatarstan","Yelabuga",69720,55.76,52.07,61.
"Russia","Bashkortostan","Beloretsk",69695,53.97,58.4,5.e2
"Russia","Perm","Lysva",69689,58.11,57.79,1.5e2
"Russia","Stavropol","Georgievsk",69379,44.15,43.47,2.9e2
"Russia","Krasnoyarsk","Krasnoyarsk45",69020,56.11,94.59,1.7e2
"Russia","Bashkortostan","Ishimbay",68914,53.46,56.04,1.6e2
"Russia","Rostov","Gukovo",68619,48.06,39.94,2.7e2
"Russia","Bashkortostan","Tuymazy",68340,54.6,53.7,1.2e2
"Russia","Amur","Belogorsk",67748,50.92,128.47,1.7e2
"Russia","MoskovskayaOblast","Stupino",67499,54.9,38.07,1.8e2
"Russia","MoskovskayaOblast","Yegoryyevsk",67014,55.38,39.03,1.4e2
"Russia","Ingushetia","Ordzhonikidzevskaya",67000,43.32,45.04,3.3e2
"Russia","Leningrad","SosnovyyBor",66603,59.9,29.12,13.
"Russia","Krasnoyarsk","Minusinsk",66402,53.71,91.69,2.5e2
"Russia","MoskovskayaOblast","Lobnya",66342,56.01,37.480000000000004,1.9e2
"Russia","Tula","Aleksin",66308,54.52,37.09,1.6e2
"Russia","Perm","Kungur",66157,57.43,56.95,1.3e2
"Russia","Sverdlovsk","Polevskoy",65911,56.44,60.19,3.8e2
"Russia","Bryansk","Klintsy",65667,52.76,32.230000000000004,1.6e2
"Russia","NizhnyNovgorod","Kstovo",65657,56.14,44.19,1.3e2
"Russia","Tatarstan","Leninogorsk",65513,54.6,52.45,2.6e2
"Russia","Yakutia","Neryungri",65412,56.67,124.71000000000001,8.e2
"Russia","Stavropol","Budyonnovsk",65384,44.79,44.14,1.3e2
"Russia","Tyumen","Ishim",64775,56.15,69.45,89.
"Russia","Krasnoyarsk","Lesosibirsk",64625,58.24,92.48,80.
"Russia","Dagestan","Buynaksk",64554,42.83,47.12,4.5e2
"Russia","Saratov","Volsk",64315,52.03,47.38,26.
"Russia","Krasnodar","SlavyanskNaKubani",64174,45.25,38.12,6.
"Russia","Novosibirsk","Iskitim",63771,54.64,83.29,1.2e2
"Russia","Krasnodar","Tikhoretsk",63573,45.85,40.13,81.
"Russia","Krasnodar","Tuapse",63452,44.11,39.07,51.
"Russia","Bashkortostan","Kumertau",63302,52.77,55.78,2.8e2
"Russia","Voronezh","Borisoglebsk",63131,51.370000000000005,42.09,1.1e2
"Russia","Bashkortostan","Sibay",62930,52.7,58.65,2.9e2
"Russia","Murmansk","Apatity",62929,67.57000000000001,33.39,1.8e2
"Russia","AltaiRepublic","GornoAltaysk",62861,51.96,85.96000000000001,3.2e2
"Russia","Sverdlovsk","Krasnoturinsk",62578,59.79,60.480000000000004,1.2e2
"Russia","NizhnyNovgorod","Pavlovo",62452,55.96,43.09,93.
"Russia","Penza","Zarechnyy",62174,53.13,46.58,2.3e2
"Russia","Voronezh","Rossosh",62083,51.14,38.51,1.4e2
"Russia","SaintPetersburg","Petrodvorets",61973,59.89,29.900000000000002,14.
"Russia","Sverdlovsk","Revda",61916,56.81,59.93,3.2e2
"Russia","Arkhangelsk","Kotlas",61902,61.26,46.660000000000004,75.
"Russia","Tatarstan","Chistopol",61742,55.36,50.64,1.1e2
"Russia","MoskovskayaOblast","Dubna",61699,56.75,37.15,1.2e2
"Russia","Leningrad","Tikhvin",61681,59.64,33.51,45.
"Russia","Tver","Rzhev",61603,56.26,34.33,1.9e2
"Russia","Amur","Svobodnyy",61597,51.4,128.13,1.9e2
"Russia","Vladimir","Aleksandrov",61551,56.4,38.72,1.8e2
"Russia","MoskovskayaOblast","Dmitrov",61390,56.35,37.52,1.4e2
"Russia","MoskovskayaOblast","PavlovskiyPosad",61293,55.78,38.65,1.3e2
"Russia","Bashkortostan","Belebey",61146,54.120000000000005,54.120000000000005,2.9e2
"Russia","Krasnodar","Labinsk",61120,44.63,40.74,2.7e2
"Russia","Rostov","Salsk",60955,46.47,41.54,39.
"Russia","KabardinoBalkaria","Prokhladnyy",60597,43.76,44.01,2.e2
"Russia","Tula","Shchyokino",60351,54.01,37.51,2.5e2
"Russia","Ivanovo","Shuya",60026,56.85,41.36,89.
"Russia","Stavropol","Mikhaylovsk",59992,45.14,42.,4.6e2
"Russia","Primorski","Arsenyev",59749,44.160000000000004,133.28,1.8e2
"Russia","KhantyMansi","KhantyMansiysk",59593,61.,69.,95.
"Russia","Volgograd","Mikhaylovka",59299,50.06,43.22,77.
"Russia","Bashkortostan","Meleuz",58536,52.97,55.92,1.8e2
"Russia","KhantyMansi","Kogalym",57752,62.03,74.5,78.
"Russia","Sverdlovsk","VerkhnyayaPyshma",57718,56.97,60.58,2.7e2
"Russia","MoskovskayaOblast","Solnechnogorsk",57506,56.18,36.980000000000004,2.e2
"Russia","Tula","Uzlovaya",57448,53.980000000000004,38.17,2.3e2
"Russia","Novgorod","Borovichi",57238,58.4,33.9,76.
"Russia","KabardinoBalkaria","Baksan",57037,43.69,43.54,4.5e2
"Russia","NizhnyNovgorod","Vyksa",56529,55.32,42.17,1.1e2
"Russia","Krasnodar","Krymsk",56203,44.92,37.980000000000004,26.
"Russia","Samara","Zhigulyovsk",56066,53.42,49.5,1.9e2
"Russia","Vladimir","GusKhrustalnyy",55973,55.620000000000005,40.67,1.2e2
"Russia","Smolensk","Roslavl",55894,53.95,32.86,2.e2
"Russia","Zabaykalsky","Krasnokamensk",55822,50.050000000000004,118.02,6.4e2
"Russia","MoskovskayaOblast","Klimovsk",55346,55.36,37.53,1.8e2
"Russia","Leningrad","Kirishi",55167,59.46,32.02,35.
"Russia","KhantyMansi","Nyagan",54735,62.14,65.39,48.
"Russia","MariEl","Volzhsk",54519,55.85,48.51,1.e2
"Russia","Krasnoyarsk","Nazarovo",54349,56.01,90.38,2.5e2
"Russia","MoskovskayaOblast","Ivanteyevka",54274,55.97,37.92,1.4e2
"Russia","Krasnodar","Anapa",54173,44.89,37.32,19.
"Russia","Krasnodar","Timashyovsk",54151,45.62,38.95,17.
"Russia","Murmansk","Severomorsk",54067,69.07000000000001,33.42,8.
"Russia","Krasnodar","Belorechensk",53966,44.77,39.87,1.2e2
"Russia","Tver","VyshniyVolochyok",53756,57.58,34.56,1.6e2
"Russia","Voronezh","GeorgiuDezh",53627,50.980000000000004,39.56,1.2e2
"Russia","NizhnyNovgorod","Balakhna",53425,56.49,43.59,75.
"Russia","Sverdlovsk","Lesnoy",53193,58.65,59.800000000000004,2.2e2
"Russia","Smolensk","Vyazma",53117,55.21,34.29,2.2e2
"Russia","MoskovskayaOblast","Vidnoye",53101,55.550000000000004,37.71,1.6e2
"Russia","Orenburg","Buguruslan",52946,53.65,52.43,71.
"Russia","MoskovskayaOblast","Domodedovo",52696,55.43,37.75,1.6e2
"Russia","Perm","Krasnokamsk",52675,58.07,55.75,91.
"Russia","MoskovskayaOblast","Fryazino",52335,55.95,38.050000000000004,1.7e2
"Russia","Rostov","Donetsk",51560,48.35,40.03,32.
"Russia","Orel","Livny",51494,52.42,37.6,1.7e2
"Russia","MoskovskayaOblast","Lytkarino",51309,55.58,37.9,1.3e2
"Russia","Krasnodar","Gelendzhik",51282,44.57,38.07,10.
"Russia","Irkutsk","Cheremkhovo",51230,53.160000000000004,103.07000000000001,5.6e2
"Russia","Smolensk","Yartsevo",50748,55.07,32.67,1.8e2
"Russia","Leningrad","Kingisepp",50513,59.370000000000005,28.6,21.
"Russia","Tver","Kimry",50455,56.870000000000005,37.35,1.2e2
"Russia","Chelyabinsk","Snezhinsk",50391,56.09,60.730000000000004,2.7e2
"Russia","Primorski","SpasskDalniy",50185,44.6,132.82,1.e2
"Russia","Murmansk","Monchegorsk",50129,67.92,32.82,1.6e2
"Russia","Perm","Chusovoy",50068,58.29,57.82,1.2e2
"Russia","AltaiKrai","Zarinsk",49882,53.72,84.93,1.7e2
"Russia","Sverdlovsk","VerkhnyayaSalda",49398,58.050000000000004,60.550000000000004,2.e2
"Russia","Khakasia","Sayanogorsk",49121,53.09,91.4,3.2e2
"Russia","Samara","Otradnyy",48933,53.370000000000005,51.35,56.
"Russia","YamaloNenets","Nadym",48847,65.53,72.52,7.
"Russia","Kemerovo","Osinniki",48780,53.620000000000005,87.35000000000001,2.7e2
"Russia","Dagestan","Kizlyar",48772,43.85,46.72,-6.
"Russia","Mordovia","Ruzajevka",48588,54.07,44.93,2.2e2
"Russia","Novosibirsk","Kujbysev",48469,55.45,78.32000000000001,1.1e2
"Russia","Udmurtia","Mozhga",48362,56.45,52.19,1.3e2
"Russia","Irkutsk","Shelekhov",48331,52.21,104.10000000000001,4.6e2
"Russia","Leningrad","Vsevolozhsk",48023,60.02,30.68,16.
"Russia","KhantyMansi","Raduzhnyy",47877,62.09,77.23,70.
"Russia","Tver","Torzhok",47796,57.04,34.97,1.6e2
"Russia","Chelyabinsk","Satka",47702,55.04,59.04,4.2e2
"Russia","KhantyMansi","Megion",47527,61.050000000000004,76.10000000000001,43.
"Russia","Krasnoyarsk","Talnakh",47307,69.5,88.45,91.
"Russia","Sverdlovsk","Beryozovskiy",47195,56.910000000000004,60.800000000000004,2.5e2
"Russia","Komi","Pechora",47167,65.15,57.21,59.
"Russia","Kemerovo","Beryozovskiy",47108,55.67,86.26,1.9e2
"Russia","KhabarovskKrai","Amursk",46687,50.22,136.9,37.
"Russia","Irkutsk","UstKut",46662,56.77,105.65,3.5e2
"Russia","Lipetsk","Gryazi",46641,52.49,39.94,1.3e2
"Russia","Kursk","Kurchatov",46463,51.59,35.65,2.4e2
"Russia","Krasnodar","Kurganinsk",46388,44.88,40.6,1.7e2
"Russia","Vladimir","Kolchugino",46285,56.300000000000004,39.38,1.8e2
"Russia","Chechnya","UrusMartan",46138,43.13,45.54,2.4e2
"Russia","Orel","Mtsensk",46129,53.27,36.550000000000004,1.8e2
"Russia","Smolensk","Safonovo",46045,55.15,33.22,2.2e2
"Russia","Leningrad","Volkhov",45949,59.93,32.34,32.
"Russia","Rostov","BelayaKalitva",45625,48.18,40.79,25.
"Russia","Ingushetia","Malgobek",45612,43.54,44.58,4.9e2
"Russia","Belgorod","Shebekino",45608,50.410000000000004,36.9,1.1e2
"Russia","Chuvashia","Kanash",45501,55.51,47.47,1.9e2
"Russia","AltaiRepublic","KamenNaObi",45140,53.79,81.34,1.2e2
"Russia","Krasnodar","Kanevskaya",45000,46.1,38.9,20.
"Russia","Chelyabinsk","Chebarkul",44951,54.980000000000004,60.370000000000005,3.3e2
"Russia","Komi","Usinsk",44805,65.92,57.410000000000004,41.
"Russia","Tomsk","Strezhevoy",44255,60.730000000000004,77.59,42.
"Russia","Tambov","Rasskazovo",44180,52.67,41.9,1.5e2
"Russia","Irkutsk","Sayansk",43820,53.99,102.10000000000001,4.4e2
"Russia","Sverdlovsk","Kachkanar",43763,58.7,59.49,3.7e2
"Russia","Krasnodar","Pashkovskiy",43634,45.02,39.11,29.
"Russia","MoskovskayaOblast","Dzerzhinskiy",43475,55.63,37.84,1.5e2
"Russia","Chechnya","Shali",43457,43.15,45.9,2.2e2
"Russia","Saratov","Rtishchevo",43448,52.26,43.79,2.1e2
"Russia","Astrakhan","Akhtubinsk",43379,48.28,46.17,3.
"Russia","SaintPetersburg","KrasnoyeSelo",43134,59.74,30.09,1.1e2
"Russia","Leningrad","Sertolovo",43124,60.15,30.2,42.
"Russia","Rostov","KrasnyySulin",43058,47.89,40.08,1.3e2
"Russia","SaintPetersburg","Kronshtadt",42987,59.99,29.77,9.
"Russia","Vladimir","Vyazniki",42948,56.25,42.17,78.
"Russia","Sverdlovsk","Alapajevsk",42920,57.85,61.690000000000005,1.3e2
"Russia","Arkhangelsk","Koryazhma",42831,61.31,47.13,83.
"Russia","Yaroslavl","PereslavlZalesskiy",42729,56.730000000000004,38.85,1.4e2
"Russia","NizhnyNovgorod","Zavolzhye",42573,56.64,43.410000000000004,76.
"Russia","Arkhangelsk","Pervomayskiy",42537,64.43,40.83,0
"Russia","Bryansk","Novozybkov",42509,52.54,31.93,1.6e2
"Russia","Krasnodar","UstLabinsk",42493,45.21,39.69,53.
"Russia","Kemerovo","Myski",42417,53.7,87.8,2.9e2
"Russia","Chuvashia","Ratorosh",42406,54.85,46.6,1.4e2
"Russia","Saratov","Pugachyov",42154,52.01,48.800000000000004,29.
"Russia","Sverdlovsk","Irbit",42072,57.67,63.06,71.
"Russia","Yaroslavl","Tutayev",41972,57.89,39.550000000000004,1.3e2
"Russia","Tatarstan","Zainsk",41933,55.32,52.06,93.
"Russia","Kemerovo","Mariinsk",41772,56.21,87.75,1.3e2
"Russia","Irkutsk","Tulun",41671,54.56,100.57000000000001,4.7e2
"Russia","Primorski","Partizansk",41602,43.13,133.13,1.6e2
"Russia","Sverdlovsk","Krasnoufimsk",41559,56.6,57.76,2.1e2
"Russia","KhantyMansi","Uray",41491,60.13,64.76,53.
"Russia","Kaluga","Lyudinovo",41388,53.870000000000005,34.45,1.8e2
"Russia","Bashkortostan","Birsk",41328,55.42,55.54,1.5e2
"Russia","SaintPetersburg","Sestroretsk",41281,60.09,29.95,4.
"Russia","Dagestan","Izberbash",41236,42.56,47.86,2.
"Russia","Vologda","Sokol",41186,59.46,40.12,1.2e2
"Russia","Krasnodar","Korenovsk",41135,45.47,39.45,32.
"Russia","Volgograd","Uryupinsk",41081,50.78,42.,76.
"Russia","KhantyMansi","PytYakh",41005,60.75,72.7833,"null"
"Russia","KhantyMansi","Langepas",40796,61.17,75.39,20.
"Russia","Orenburg","Gay",40783,51.47,58.46,3.8e2
"Russia","Chelyabinsk","Kyshtym",40759,55.7,60.56,2.8e2
"Russia","Kaliningrad","Sovetsk",40486,55.07,21.88,15.
"Russia","NorthOssetia","Mozdok",40383,43.75,44.65,1.3e2
"Russia","Kamchatka","Yelizovo",40141,53.18,158.38,31.
"Russia","Stavropol","Zelenokumsk",40140,44.410000000000004,43.88,1.5e2
"Russia","Penza","Kamenka",39917,53.19,44.04,1.6e2
"Russia","Kaliningrad","Chernyakhovsk",39874,54.63,21.81,30.
"Russia","Volgograd","Frolovo",39795,49.77,43.65,1.1e2
"Russia","MoskovskayaOblast","Kashira",39787,54.84,38.17,1.8e2
"Russia","Bashkortostan","Uchaly",39623,54.300000000000004,59.44,5.5e2
"Russia","Tver","Konakovo",39533,56.7,36.77,1.3e2
"Russia","Krasnodar","Apsheronsk",39482,44.46,39.730000000000004,2.1e2
"Russia","Stavropol","Svetlograd",39463,45.34,42.85,1.3e2
"Russia","Leningrad","Luga",39426,58.74,29.84,60.
"Russia","Kirov","VyatskiyePolyany",39384,56.22,51.08,1.2e2
"Russia","YamaloNenets","Salekhard",39375,66.53,66.6,25.
"Russia","Chelyabinsk","Korkino",39366,54.89,61.4,2.4e2
"Russia","Tambov","Morshansk",39362,53.45,41.81,1.1e2
"Russia","Belgorod","Alekseyevka",39314,50.64,38.7,96.
"Russia","Sverdlovsk","Rezh",39273,57.370000000000005,61.4,1.7e2
"Russia","Ivanovo","Vichuga",39236,57.21,41.93,1.4e2
"Russia","Sverdlovsk","Tavda",39051,58.050000000000004,65.26,75.
"Russia","Amur","Tynda",38957,55.17,124.72,5.4e2
"Russia","Chechnya","Gudermes",38953,43.36,46.11,53.
"Russia","Kaluga","Kirov",38888,54.08,34.31,1.9e2
"Russia","Rostov","Aksay",38871,47.26,39.87,33.
"Russia","Chelyabinsk","Yuzhnouralsk",38834,54.44,61.26,2.4e2
"Russia","Stavropol","Izobilnyy",38777,45.37,41.71,2.e2
"Russia","Yakutia","Mirnyy",38661,62.54,113.96000000000001,3.4e2
"Russia","Irkutsk","Nizhneudinsk",38370,54.9,99.03,4.2e2
"Russia","Krasnoyarsk","Sharypovo",38242,55.54,89.2,3.1e2
"Russia","Primorski","BolshoyKamen",38198,43.12,132.36,18.
"Russia","Krasnodar","Leningradskaya",38000,46.31,39.39,29.
"Russia","Ivanovo","Furmanov",37977,57.25,41.1,1.2e2
"Russia","Rostov","Millerovo",37735,48.93,40.39,1.3e2
"Russia","NizhnyNovgorod","Kulebaki",37601,55.410000000000004,42.53,1.1e2
"Russia","Primorski","Dalnegorsk",37519,44.54,135.51,2.7e2
"Russia","Irkutsk","Tayshet",37275,55.93,97.99000000000001,3.3e2
"Russia","YamaloNenets","Muravlenko",37256,63.78,73.5,1.e2
"Russia","Primorski","Lesozavodsk",37034,45.480000000000004,133.42000000000002,68.
"Russia","MoskovskayaOblast","Protvino",37001,54.870000000000005,37.22,1.3e2
"Russia","Tyumen","Yalutorovsk",36610,56.67,66.3,60.
"Russia","NizhnyNovgorod","Bogorodsk",36567,56.1,43.52,1.3e2
"Russia","Yaroslavl","Uglich",36503,57.53,38.33,1.2e2
"Russia","Leningrad","Tosno",36458,59.550000000000004,30.88,37.
"Russia","KhantyMansi","Lyantor",36249,61.58,72.31,61.
"Russia","Perm","Dobryanka",35959,58.46,56.410000000000004,1.2e2
"Russia","Voronezh","Novovoronezh",35951,51.32,39.22,1.1e2
"Russia","Krasnodar","Temryuk",35918,45.27,37.38,23.
"Russia","Perm","Chernushka",35841,56.51,56.07,1.4e2
"Russia","Belgorod","Valuyki",35784,50.21,38.1,88.
"Russia","Penza","Serdobsk",35780,52.47,44.22,2.1e2
"Russia","Leningrad","Slantsy",35774,59.1,28.07,37.
"Russia","NorthOssetia","Bersinyurt",35716,43.2,44.54,4.9e2
"Russia","Ivanovo","Teykovo",35610,56.85,40.54,1.2e2
"Russia","Stavropol","Goryachevodskiy",35539,44.02,43.09,5.1e2
"Russia","Sakhalin","Korsakov",35526,46.64,142.78,61.
"Russia","Tula","Yefremov",35505,53.15,38.13,1.5e2
"Russia","Sverdlovsk","SukhoyLog",35430,56.910000000000004,62.03,1.7e2
"Russia","MoskovskayaOblast","Troitsk",35088,55.480000000000004,37.31,1.8e2
"Russia","Krasnodar","Gulkevichi",35042,45.36,40.71,96.
"Russia","Krasnodar","Dinskaya",35000,45.22,39.230000000000004,32.
"Russia","AltaiRepublic","Slavgorod",34825,53.,78.67,1.1e2
"Russia","Tatarstan","Aznakay",34775,54.86,53.07,1.9e2
"Russia","Krasnodar","Novokubansk",34769,45.1,41.050000000000004,1.5e2
"Russia","Chuvashia","Shumerlya",34763,55.49,46.42,86.
"Russia","Krasnodar","Kalinino",34594,45.14,39.,29.
"Russia","Ryazan","Kasimov",34544,54.94,41.39,1.1e2
"Russia","Chelyabinsk","Tryokhgornyy",34391,54.82,58.46,4.5e2
"Russia","Novgorod","StarayaRussa",34175,57.99,31.36,26.
"Russia","Karelia","Kondopoga",34063,62.2,34.28,60.
"Russia","Sverdlovsk","Artyomovskiy",34045,57.36,61.870000000000005,1.8e2
"Russia","Ingushetia","Karabulak",34011,43.300000000000004,44.9,4.1e2
"Russia","KarachaiCherkessRepublic","UstDzheguta",34001,44.09,41.97,6.2e2
"Russia","Sverdlovsk","Kushva",33890,58.29,59.75,2.3e2
"Russia","Krasnodar","Abinsk",33729,44.87,38.160000000000004,29.
"Russia","KabardinoBalkaria","Dokshukino",33622,43.59,43.76,3.e2
"Russia","Dagestan","Kizilyurt",33529,43.21,46.87,56.
"Russia","Chelyabinsk","VerkhniyUfaley",33458,56.06,60.230000000000004,3.7e2
"Russia","Karelia","Segezha",33276,63.75,34.33,74.
"Russia","Kaliningrad","Baltiysk",33255,54.65,19.91,0
"Russia","Bashkortostan","Blagoveshchensk",33255,55.04,55.980000000000004,1.e2
"Russia","Bryansk","Dyatkovo",33202,53.6,34.34,2.e2
"Russia","Kirov","Slobodskoy",33115,58.72,50.19,1.4e2
"Russia","Stavropol","Blagodarnyy",33026,45.1,43.44,1.5e2
"Russia","Sverdlovsk","Severouralsk",32979,60.15,59.96,1.7e2
"Russia","Tambov","Kotovsk",32955,52.59,41.51,1.4e2
"Russia","Tatarstan","Nurlat",32954,54.43,50.77,1.4e2
"Russia","Sakhalin","Kholmsk",32892,47.050000000000004,142.06,82.
"Russia","Saratov","Petrovsk",32881,52.32,45.38,1.8e2
"Russia","Saratov","Privolzhskiy",32874,51.4,46.03,24.
"Russia","Tula","Bogoroditsk",32827,53.77,38.12,2.4e2
"Russia","MoskovskayaOblast","Istra",32647,55.92,36.86,1.7e2
"Russia","Vologda","VelikiyUstyug",32389,60.77,46.300000000000004,85.
"Russia","Astrakhan","KapustinYar1",32357,48.58,45.75,0
"Russia","Krasnodar","PrimorskoAkhtarsk",32245,46.04,38.18,-5.
"Russia","MoskovskayaOblast","Lukhovitsy",32133,54.97,39.04,1.2e2
"Russia","Tver","Udomlya",32106,57.88,34.99,1.7e2
"Russia","Komi","Inta",32080,66.04,60.17,51.
"Russia","Sverdlovsk","Bogdanovich",32072,56.78,62.050000000000004,1.6e2
"Russia","Murmansk","Kandalaksha",32034,67.16,32.410000000000004,29.
"Russia","Tula","Donskoy",31968,53.97,38.32,2.1e2
"Russia","Smolensk","Desnogorsk",31919,54.15,33.28,2.1e2
"Russia","Ryazan","Skopin",31894,53.83,39.58,1.7e2
"Russia","Saratov","Marks",31864,51.71,46.72,18.
"Russia","Chelyabinsk","Asha",31811,55.,57.27,1.3e2
"Russia","Yaroslavl","Rostov",31792,57.19,39.4,1.e2
"Russia","NizhnyNovgorod","Gorodets",31707,56.65,43.480000000000004,1.e2
"Russia","Voronezh","Ostrogozhsk",31700,50.870000000000005,39.08,1.2e2
"Russia","MoskovskayaOblast","Yubileynyy",31647,55.9333,37.85,"null"
"Russia","MoskovskayaOblast","Shatura",31523,55.58,39.54,1.3e2
"Russia","KhantyMansi","Yugorsk",31515,61.31,63.33,1.1e2
"Russia","Vladimir","Kirzhach",31472,56.17,38.87,1.4e2
"Russia","MoskovskayaOblast","Mozhaysk",31266,55.5,36.03,2.1e2
"Russia","Perm","Kudymkar",31265,59.02,54.67,1.3e2
"Russia","Kaluga","Maloyaroslavets",31249,55.01,36.47,2.e2
"Russia","Irkutsk","Zima",31229,53.93,102.04,4.6e2
"Russia","Novosibirsk","Barabinsk",31173,55.35,78.35000000000001,1.2e2
"Russia","MoskovskayaOblast","LikinoDulyovo",31080,55.7,38.96,1.3e2
"Russia","Krasnodar","Pavlovskaya",31000,46.13,39.79,51.
"Russia","Samara","Kinel",30930,53.230000000000004,50.65,36.
"Russia","Murmansk","Kirovsk",30925,67.61,33.67,3.6e2
"Russia","Zabaykalsky","Borzya",30737,50.38,116.52,6.9e2
"Russia","Kemerovo","Topki",30683,56.28,86.60000000000001,2.e2
"Russia","Bashkortostan","Dyurtyuli",30658,55.49,54.88,81.
"Russia","Krasnoyarsk","Divnogorsk",30621,55.96,92.36,2.8e2
"Russia","Krasnoyarsk","Sosnovoborsk",30435,56.13,93.36,1.6e2
"Russia","Orenburg","Mednogorsk",30154,51.42,57.58,3.1e2
"Russia","Sverdlovsk","Karpinsk",30065,59.76,60.01,2.e2
"Russia","Krasnodar","Starominskaya",30000,46.53,39.050000000000004,21.
"Russia","Krasnodar","Kushchevskaya",30000,46.56,39.64,13.
"Russia","Karelia","Kostomuksha",29825,64.68,30.82,1.6e2
"Russia","MoskovskayaOblast","Golitsino2",29774,55.6,37.0333,"null"
"Russia","KhabarovskKrai","SovetskayaGavan",29634,48.97,140.28,38.
"Russia","Chelyabinsk","Yemanzhelinsk",29574,54.75,61.300000000000004,2.3e2
"Russia","Ryazan","Sasovo",29568,54.35,41.910000000000004,1.1e2
"Russia","MoskovskayaOblast","Nakhabino",29460,55.83,37.26,2.e2
"Russia","Chelyabinsk","Kartaly",29375,53.050000000000004,60.67,2.9e2
"Russia","KhantyMansi","Poykovskiy",29303,61.230000000000004,73.33,23.
"Russia","Orenburg","Sorochinsk",29233,52.43,53.17,91.
"Russia","MoskovskayaOblast","Shcherbinka",29207,55.5,37.56,1.7e2
"Russia","Novosibirsk","Ob",29194,54.99,82.71000000000001,1.1e2
"Russia","Primorski","Dalnerechensk",29085,45.93,133.72,57.
"Russia","Krasnodar","Poltavskaya",29000,45.36,38.21,5.
"Russia","Arkhangelsk","Mirnyy",28935,61.33,44.54,1.1e2
"Russia","Komi","Sosnogorsk",28889,63.6,53.88,1.e2
"Russia","Tula","Kimovsk",28701,53.97,38.53,2.2e2
"Russia","Rostov","Morozovsk",28687,48.35,41.83,83.
"Russia","MoskovskayaOblast","Tomilino",28670,55.660000000000004,37.94,1.3e2
"Russia","AltaiRepublic","Aleysk",28657,52.49,82.78,1.7e2
"Russia","Ivanovo","Kokhma",28567,56.93,41.09,1.1e2
"Russia","Orenburg","Kuvandyk",28511,51.480000000000004,57.35,2.1e2
"Russia","Sverdlovsk","Kamyshlov",28384,56.84,62.71,85.
"Russia","Novosibirsk","Karasuk",28340,53.730000000000004,78.03,1.1e2
"Russia","Samara","Pokhvistnevo",28258,53.63,52.13,89.
"Russia","Stavropol","Inozemtsevo",28176,44.1,43.09,4.8e2
"Russia","Kaliningrad","Gusev",28051,54.59,22.2,44.
"Russia","Chechnya","UstargardoynEvl",28050,43.300000000000004,45.87,1.1e2
"Russia","Bryansk","Unecha",28040,52.85,32.68,1.9e2
"Russia","Stavropol","Ipatovo",28029,45.72,42.9,1.e2
"Russia","Stavropol","Aleksandrovskoye",28006,44.71,43.,3.2e2
"Russia","Stavropol","Kochubeyevskoye",28000,44.660000000000004,41.83,3.9e2
"Russia","Krasnodar","GoryachiyKlyuch",28000,44.63,39.13,64.
"Russia","Rostov","Zernograd",27957,46.85,40.31,88.
"Russia","Tambov","Uvarovo",27888,51.99,42.26,1.5e2
"Russia","Kemerovo","Polysayevo",27851,54.58,86.24,1.7e2
"Russia","Sverdlovsk","Krasnouralsk",27821,58.35,60.050000000000004,2.3e2
"Russia","Ivanovo","Rodniki",27706,57.1,41.730000000000004,1.5e2
"Russia","Tomsk","Asino",27705,57.,86.15,1.e2
"Russia","Saratov","Atkarsk",27698,51.88,45.,1.8e2
"Russia","MoskovskayaOblast","Dedovsk",27656,55.870000000000005,37.12,1.9e2
"Russia","Sverdlovsk","Zarechnyy",27431,56.81,61.33,2.5e2
"Russia","Kirov","Kotelnich",27406,58.31,48.32,1.3e2
"Russia","YamaloNenets","Labytnangi",27387,66.66,66.42,0
"Russia","Amur","Zeya",27330,53.75,127.27,2.3e2
"Russia","Krasnoyarsk","Kayerkan",27295,69.38,87.74,67.
"Russia","KabardinoBalkaria","Mayskiy",27264,43.68,44.07,2.e2
"Russia","Orenburg","SolIletsk",27189,51.160000000000004,55.,1.2e2
"Russia","Irkutsk","ZheleznogorskIlimskiy",27177,56.57,104.12,4.7e2
"Russia","Bashkortostan","Yanaul",27139,56.28,54.93,95.
"Russia","Sakhalin","Okha",26863,53.57,142.95000000000002,21.
"Russia","Omsk","Tara",26778,56.9,74.37,70.
"Russia","Stavropol","Novoaleksandrovsk",26729,45.49,41.22,1.2e2
"Russia","Perm","Gubakha",26605,58.870000000000005,57.59,2.7e2
"Russia","KhabarovskKrai","NikolayevskNaAmure",26591,53.14,140.72,15.
"Russia","Volgograd","KalachNaDonu",26586,48.71,43.5,37.
"Russia","Stavropol","Neftekumsk",26421,44.67,44.92,51.
"Russia","Dagestan","DagestanskiyeOgni",26393,42.12,48.18,32.
"Russia","Samara","Oktyabrsk",26354,53.17,48.64,1.5e2
"Russia","Novosibirsk","Tatarsk",26293,55.22,75.97,1.1e2
"Russia","Kemerovo","Guryevsk",26244,54.29,85.94,2.3e2
"Russia","Arkhangelsk","Velsk",26210,61.07,42.1,94.
"Russia","MoskovskayaOblast","Kubinka",26197,55.58,36.69,2.e2
"Russia","Smolensk","Gzhatsk",26100,55.550000000000004,35.,1.9e2
"Russia","Volgograd","Kotovo",26026,50.300000000000004,44.82,1.4e2
"Russia","MoskovskayaOblast","Ozyory",26023,54.85,38.54,1.1e2
"Russia","Voronezh","Pavlovsk",25835,50.46,40.11,93.
"Russia","MoskovskayaOblast","Krasnoarmeysk",25781,56.1,38.13,1.6e2
"Russia","Primorski","Fokino",25780,42.980000000000004,132.4,24.
"Russia","Buryatia","Severobaykalsk",25742,55.65,109.32000000000001,5.3e2
"Russia","Sverdlovsk","Nevyansk",25593,57.49,60.21,2.5e2
"Russia","Tver","Bezhetsk",25494,57.78,36.7,1.4e2
"Russia","Voronezh","Buturlinovka",25391,50.82,40.61,1.2e2
"Russia","Tula","Kireyevsk",25349,53.94,37.92,2.1e2
"Russia","Adygeya","Yablonovskiy",25345,44.99,38.94,16.
"Russia","Tver","Bologoye",25299,57.870000000000005,34.05,1.8e2
"Russia","Tomsk","Kolpashevo",25292,58.31,82.91,59.
"Russia","Krasnodar","Mostovskoy",25281,44.410000000000004,40.79,3.8e2
"Russia","Kostroma","Nerekhta",25135,57.46,40.57,1.e2
"Russia","SaintPetersburg","Metallostroy",25123,59.800000000000004,30.580000000000002,14.
"Russia","Kirov","Omutninsk",25097,58.67,52.18,1.9e2
"Russia","Chelyabinsk","UstKatav",25062,54.94,58.17,3.e2
"Russia","Tyumen","Zavodoukovsk",25006,56.51,66.54,67.
"Russia","Krasnoyarsk","Dudinka",24988,69.41,86.18,24.
"Russia","Kemerovo","Kaltan",24986,53.5,87.28,2.8e2
"Russia","Buryatia","Gusinoozyorsk",24982,51.28,106.5,5.5e2
"Russia","KhantyMansi","Sovetskiy",24835,61.36,63.58,1.1e2
"Russia","Kemerovo","Tayga",24832,56.06,85.62,2.4e2
"Russia","NizhnyNovgorod","Semyonov",24807,56.800000000000004,44.49,1.1e2
"Russia","Kostroma","Sharya",24778,58.370000000000005,45.51,1.2e2
"Russia","Irkutsk","Vikhorevka",24753,56.09,101.25,3.5e2
"Russia","Yakutia","Lensk",24558,60.730000000000004,114.93,2.e2
"Russia","MoskovskayaOblast","Volokolamsk",24548,56.03,35.97,1.9e2
"Russia","Kostroma","Buy",24531,58.480000000000004,41.53,96.
"Russia","Kamchatka","Vilyuchinsk",24434,53.07,158.62,1.7e2
"Russia","MoskovskayaOblast","Zaraysk",24433,54.77,38.88,1.6e2
"Russia","Stavropol","Zheleznovodsk",24389,44.14,43.02,5.9e2
"Russia","Penza","Nikolsk",24272,53.71,46.08,2.5e2
"Russia","Tver","Nelidovo",24244,56.22,32.78,2.e2
"Russia","Rostov","Zverevo",24139,48.02,40.12,2.4e2
"Russia","Yakutia","Aldan",24045,58.6,125.39,6.4e2
"Russia","Ingushetia","Ekazhevo",24000,43.22,44.82,5.3e2
"Russia","Krasnodar","Tbilisskaya",24000,45.36,40.19,81.
"Russia","Bashkortostan","Davlekanovo",23960,54.22,55.050000000000004,1.2e2
"Russia","Voronezh","Semiluki",23940,51.69,39.02,1.4e2
"Russia","Ingushetia","Troitskaya",23745,43.300000000000004,45.01,3.3e2
"Russia","Omsk","Kalachinsk",23705,55.050000000000004,74.57000000000001,1.e2
"Russia","MoskovskayaOblast","Kalininets",23676,55.5585,36.9749,"null"
"Russia","Penza","NizhniyLomov",23624,53.52,43.68,1.5e2
"Russia","Leningrad","Kirovsk",23602,59.870000000000005,31.,21.
"Russia","Murmansk","Olenegorsk",23581,68.15,33.3,1.6e2
"Russia","Amur","Raychikhinsk",23528,49.77,129.42000000000002,2.1e2
"Russia","Saratov","Krasnoarmeysk",23468,51.02,45.7,2.e2
"Russia","Sverdlovsk","NizhnyayaTura",23345,58.63,59.800000000000004,2.e2
"Russia","Samara","Bezenchuk",23314,52.980000000000004,49.43,41.
"Russia","Rostov","Semikarakorsk",23250,47.52,40.81,12.
"Russia","NizhnyNovgorod","Lyskovo",23152,56.03,45.04,94.
"Russia","Omsk","Isilkul",23151,54.92,71.27,1.2e2
"Russia","Kaluga","Balabanovo",23144,55.18,36.660000000000004,1.6e2
"Russia","Stavropol","Novopavlovsk",23001,43.96,43.63,3.3e2
"Russia","Krasnodar","Severskaya",23000,44.85,38.68,47.
"Russia","Krasnodar","Novotitarovskaya",23000,45.24,38.980000000000004,21.
"Russia","Tatarstan","Bavly",22913,54.38,53.28,1.9e2
"Russia","Kemerovo","Tashtagol",22835,52.78,87.88,5.7e2
"Russia","MoskovskayaOblast","Monino",22821,55.84,38.19,1.5e2
"Russia","Perm","Osa",22813,57.2829207,55.4602059,91.
"Russia","Krasnoyarsk","Bogotol",22708,56.21,89.52,2.9e2
"Russia","Arkhangelsk","Onega",22696,63.92,38.08,23.
"Russia","Perm","Vereshchagino",22682,58.08,54.65,2.1e2
"Russia","Kursk","Lgov",22567,51.69,35.28,1.7e2
"Russia","Sverdlovsk","Kirovgrad",22532,57.44,60.06,2.7e2
"Russia","Krasnodar","Ilskiy",22518,44.84,38.58,63.
"Russia","Stavropol","Lermontov",22477,44.11,42.97,6.6e2
"Russia","Novosibirsk","Linyovo",22423,54.43,83.37,2.2e2
"Russia","Leningrad","Pikalyovo",22401,59.52,34.17,1.8e2
"Russia","Lipetsk","Dankov",22385,53.25,39.15,1.3e2
"Russia","Primorski","Luchegorsk",22304,46.480000000000004,134.24,78.
"Russia","Leningrad","LodeynoyePole",22280,60.730000000000004,33.56,23.
"Russia","Perm","Kizel",22211,59.06,57.64,2.7e2
"Russia","Ryazan","Ryazhsk",22202,53.71,40.07,1.1e2
"Russia","Udmurtia","Igra",22200,57.56,53.04,1.8e2
"Russia","MoskovskayaOblast","LosinoPetrovskiy",22197,55.870000000000005,38.2,1.4e2
"Russia","NizhnyNovgorod","Sergach",22182,55.53,45.47,1.2e2
"Russia","Voronezh","NovayaUsman",22165,51.64,39.42,1.e2
"Russia","Amur","Shimanovsk",22144,52.,127.7,2.7e2
"Russia","Arkhangelsk","Nyandoma",22136,61.67,40.2,2.2e2
"Russia","Tatarstan","Mendeleyevsk",22027,55.89,52.32,1.1e2
"Russia","Krasnodar","Otradnaya",22000,44.39,41.52,4.5e2
"Russia","Krasnodar","Bryukhovetskaya",22000,45.800000000000004,39.,17.
"Russia","Chechnya","Kurchaloy",22000,43.2,46.09,1.8e2
"Russia","YamaloNenets","Gubkinskiy",21990,64.46000000000001,76.62,56.
"Russia","MoskovskayaOblast","Roshal",21983,55.67,39.88,1.1e2
"Russia","SaintPetersburg","Lomonosov",21900,59.910000000000004,29.75,39.
"Russia","Novosibirsk","Toguchin",21825,55.24,84.39,1.4e2
"Russia","Kaliningrad","Svetlyy",21805,54.68,20.13,0
"Russia","Chelyabinsk","Bakal",21762,54.94,58.800000000000004,6.e2
"Russia","Leningrad","Otradnoye",21537,59.78,30.82,19.
"Russia","Vologda","Sheksna",21523,59.22,38.5,1.e2
"Russia","Bashkortostan","Shishma",21521,54.58968,55.385605,1.1e2
"Russia","NizhnyNovgorod","Shakhunya",21444,57.67,46.62,1.5e2
"Russia","MoskovskayaOblast","Pushchino",21281,54.83,37.6,1.6e2
"Russia","MoskovskayaOblast","StarayaKupavna",21269,55.800000000000004,38.17,1.4e2
"Russia","Mordovia","Kovylkino",21216,54.01,43.64,2.1e2
"Russia","Sverdlovsk","Sysert",21021,56.5,60.81,2.4e2
"Russia","Krasnoyarsk","Beryozovka",21006,56.04,93.14,1.5e2
"Russia","KarachaiCherkessRepublic","Zelenchukskaya",21000,43.86,41.59,9.4e2
"Russia","KabardinoBalkaria","Dugulubgey",20965,43.660000000000004,43.54,4.5e2
"Russia","Bashkortostan","Priyutovo",20859,53.9,53.93,3.e2
"Russia","Tatarstan","Buinsk",20854,54.95,48.28,74.
"Russia","Belgorod","Stroitel",20787,50.79,36.480000000000004,2.3e2
"Russia","Krasnodar","Khadyzhensk",20766,44.43,39.53,1.1e2
"Russia","AltaiRepublic","Yarovoye",20746,52.9,78.58,78.
"Russia","Lipetsk","Lebedyan",20713,53.01,39.14,1.4e2
"Russia","Moscow","Vnukovo",20592,55.6,37.18,1.9e2
"Russia","Pskov","Ostrov",20568,57.35,28.32,52.
"Russia","Perm","Nytva",20551,57.94,55.33,1.1e2
"Russia","Belgorod","NovyyOskol",20539,50.76,37.87,1.1e2
"Russia","MoskovskayaOblast","Elektrogorsk",20486,55.88,38.79,1.3e2
"Russia","MoskovskayaOblast","Elektrougli",20454,55.71,38.34,1.5e2
"Russia","MoskovskayaOblast","Khotkovo",20453,56.25,38.,1.8e2
"Russia","Leningrad","Priozyorsk",20440,61.03,30.12,2.
"Russia","MoskovskayaOblast","Chernogolovka",20423,56.,38.37,1.5e2
"Russia","KabardinoBalkaria","NizhneBakhsen",20376,43.42,42.92,1.6e3
"Russia","Zabaykalsky","PetrovskZabaykalskiy",20334,51.28,108.83,8.e2
"Russia","Tula","Suvorov",20329,54.120000000000005,36.49,1.9e2
"Russia","MariEl","Kozmodemyansk",20327,56.34,46.57,91.
"Russia","Voronezh","Kalach",20295,50.43,41.01,88.
"Russia","Ryazan","Novomichurinsk",20254,54.04,39.78,1.2e2
"Russia","AltaiRepublic","Talmenka",20212,53.82,83.56,1.4e2
"Russia","Vladimir","Sobinka",20205,55.980000000000004,40.02,1.1e2
"Russia","Voronezh","Bobrov",20189,51.1,40.03,1.5e2
"Russia","Karelia","Sortavala",20115,61.7,30.68,7.
"Russia","Volgograd","Surovikino",20107,48.61,42.85,43.
"Russia","Novosibirsk","Cherepanovo",20067,54.230000000000004,83.37,2.8e2
"Russia","Tatarstan","Arsk",20046,56.09,49.88,1.1e2
"Russia","Volgograd","Gorodishche",19995,48.81,44.51,52.
"Russia","Saratov","Yershov",19993,51.35,48.25,98.
"Russia","Stavropol","Yessentukskaya",19956,44.04,42.9,5.9e2
"Russia","Murmansk","Kovdor",19906,67.56,30.47,2.1e2
"Russia","Bryansk","Karachev",19870,53.120000000000005,34.99,2.e2
"Russia","KabardinoBalkaria","Terek",19843,43.480000000000004,44.14,2.6e2
"Russia","YamaloNenets","TarkoSale",19798,64.92,77.79,25.
"Russia","KhantyMansi","Beloyarskiy",19794,63.71,66.37,15.
"Russia","Kirov","Yaransk",19750,57.300000000000004,47.88,1.2e2
"Russia","Volgograd","Kotelnikovo",19688,47.63,43.15,46.
"Russia","KarachaiCherkessRepublic","Karachayevsk",19677,43.78,41.910000000000004,8.7e2
"Russia","Sverdlovsk","Sredneuralsk",19623,56.99,60.47,2.8e2
"Russia","Udmurtia","Uva",19619,56.99,52.19,1.2e2
"Russia","KhabarovskKrai","Bikin",19585,46.82,134.26,69.
"Russia","Leningrad","Podporozhye",19577,60.92,34.19,22.
"Russia","Lipetsk","Usman",19530,52.050000000000004,39.72,1.5e2
"Russia","NorthOssetia","Alagir",19528,42.97,44.21,7.5e2
"Russia","Ulyanovsk","Inza",19491,53.85,46.36,1.8e2
"Russia","Vladimir","YuryevPolskiy",19441,56.5,39.67,1.4e2
"Russia","Rostov","Proletarsk",19408,46.7,41.72,16.
"Russia","Sverdlovsk","Ivdel",19379,60.69,60.42,82.
"Russia","Krasnodar","Novopokrovskaya",19342,45.95,40.7,59.
"Russia","Rostov","Orlovskiy",19325,46.87,42.050000000000004,96.
"Russia","Voronezh","Anna",19316,51.49,40.43,1.4e2
"Russia","Krasnodar","Yelizavetinskaya",19306,45.03,38.800000000000004,14.
"Russia","Chelyabinsk","Kusa",19298,55.34,59.44,3.7e2
"Russia","Krasnoyarsk","Yeniseysk",19294,58.45,92.16,79.
"Russia","Krasnodar","Akhtyrskiy",19273,44.85,38.300000000000004,38.
"Russia","Kaluga","Kozelsk",19269,54.04,35.78,1.7e2
"Russia","Orenburg","Abdulino",19222,53.7,53.67,2.2e2
"Russia","Chelyabinsk","KatavIvanovsk",19217,54.75,58.2,4.4e2
"Russia","AltaiRepublic","Yuzhnyy",19193,53.25,83.69,2.1e2
"Russia","Ingushetia","Nesterovskaya",19186,43.230000000000004,45.03,4.5e2
"Russia","MoskovskayaOblast","Kraskovo",19148,55.65,37.980000000000004,1.3e2
"Russia","Nenets","NaryanMar",19127,67.65,53.050000000000004,10.
"Russia","Bashkortostan","Mezhgorye",19119,54.05,57.8167,"null"
"Russia","MoskovskayaOblast","Kurovskoye",19097,55.58,38.910000000000004,1.2e2
"Russia","Samara","Neftegorsk",19084,52.82,51.2,63.
"Russia","Ryazan","Rybnoye",19039,54.730000000000004,39.51,1.e2
"Russia","Bashkortostan","Rayevskiy",19000,54.07,54.93,1.2e2
"Russia","Krasnoyarsk","Borodino",18958,55.910000000000004,94.89,3.2e2
"Russia","Tver","Ostashkov",18955,57.15,33.1,2.e2
"Russia","MoskovskayaOblast","Skhodnya",18897,55.95,37.300000000000004,2.e2
"Russia","Bashkortostan","Agidel",18889,55.88,53.93,70.
"Russia","Bryansk","Zhukovka",18849,53.53,33.72,1.7e2
"Russia","Buryatia","Kyakhta",18841,50.35,106.45,7.8e2
"Russia","Kurgan","Shumikha",18815,55.230000000000004,63.300000000000004,1.7e2
"Russia","Krasnodar","Staroshcherbinovskaya",18785,46.63,38.67,9.
"Russia","Saratov","Kalininsk",18770,51.5,44.47,1.5e2
"Russia","Irkutsk","Slyudyanka",18764,51.660000000000004,103.71000000000001,5.4e2
"Russia","Krasnodar","Vyselki",18746,45.58,39.660000000000004,56.
"Russia","KhabarovskKrai","Vanino",18742,49.08,140.25,64.
"Russia","Sverdlovsk","Turinsk",18726,58.050000000000004,63.7,98.
"Russia","Sverdlovsk","Talitsa",18709,57.02,63.71,65.
"Russia","MoskovskayaOblast","Kotelniki",18699,55.65,37.86,1.6e2
"Russia","Krasnoyarsk","Shushenskoye",18670,53.33,91.94,2.8e2
"Russia","Tatarstan","Ogyrchi",18640,56.52,53.,91.
"Russia","Volgograd","Novoanninskiy",18635,50.53,42.68,94.
"Russia","Kostroma","Manturovo",18607,58.34,44.76,1.3e2
"Russia","Rostov","Konstantinovsk",18600,47.58,41.09,25.
"Russia","Primorski","Trudovoye",18484,43.31,132.08,30.
"Russia","MoskovskayaOblast","NikolskoArkhangelskiy",18483,55.75,37.9,1.5e2
"Russia","Chelyabinsk","Kasli",18431,55.89,60.76,2.3e2
"Russia","Bryansk","Seltso",18424,53.36,34.11,1.5e2
"Russia","MoskovskayaOblast","Malakhovka",18423,55.65,38.02,1.3e2
"Russia","Stavropol","Nezlobnaya",18412,44.12,43.4,3.1e2
"Russia","MoskovskayaOblast","Bronnitsy",18409,55.43,38.27,1.1e2
"Russia","Samara","KinelCherkassy",18393,53.47,51.5,45.
"Russia","Chechnya","Avtury",18370,43.160000000000004,46.,2.6e2
"Russia","Bryansk","Starodub",18368,52.58,32.76,1.7e2
"Russia","Tambov","Kirsanov",18365,52.660000000000004,42.71,1.5e2
"Russia","MoskovskayaOblast","Aprelevka",18341,55.54,37.07,1.9e2
"Russia","Murmansk","Zapolyarnyy",18321,69.41,30.8,1.3e2
"Russia","NorthOssetia","Ardon",18313,43.18,44.29,4.2e2
"Russia","KabardinoBalkaria","Chegem",18298,43.28,43.13,2.2e3
"Russia","MoskovskayaOblast","Tuchkovo",18151,55.6,36.47,2.e2
"Russia","Astrakhan","Kharabali",18106,47.410000000000004,47.26,-10.
"Russia","Krasnodar","Afipskiy",18072,44.9,38.84,22.
"Russia","Sverdlovsk","Reftinskiy",18001,57.09,61.68,1.9e2
"Russia","Krasnodar","BelayaGlina",17997,46.07,40.87,58.
"Russia","Rostov","Yegorlykskaya",17978,46.56,40.65,99.
"Russia","MoskovskayaOblast","Beloozyorskiy",17932,55.47,38.49,1.4e2
"Russia","Volgograd","Zhirnovsk",17887,50.980000000000004,44.77,1.2e2
"Russia","Ulyanovsk","Barysh",17879,53.65,47.13,1.9e2
"Russia","Voronezh","Povorino",17834,51.2,42.25,1.2e2
"Russia","Sverdlovsk","NizhnyayaSalda",17829,58.08,60.730000000000004,1.7e2
"Russia","Kostroma","Volgorechensk",17825,57.44,41.160000000000004,1.1e2
"Russia","Tula","Yasnogorsk",17806,54.480000000000004,37.7,2.5e2
"Russia","Kurgan","Kurtamysh",17791,54.910000000000004,64.43,1.1e2
"Russia","Vladimir","Raduzhnyy",17787,55.9978,40.3297,"null"
"Russia","Stavropol","Svobody",17771,44.03,43.050000000000004,5.e2
"Russia","Kemerovo","Kedrovka",17752,55.52,86.09,1.6e2
"Russia","Adygeya","Enem",17733,44.93,38.9,21.
"Russia","Ivanovo","Privolzhsk",17723,57.38,41.29,1.1e2
"Russia","Perm","Krasnovishersk",17687,60.4,57.08,1.3e2
"Russia","Rostov","Zimovniki",17678,47.15,42.46,58.
"Russia","Kemerovo","Promyshlennaya",17658,54.92,85.64,1.8e2
"Russia","Tula","KosayaGora",17619,54.17,37.56,1.7e2
"Russia","Murmansk","Polyarnyy",17568,69.2,33.45,15.
"Russia","Novosibirsk","Bolotnoye",17496,55.68,84.39,1.8e2
"Russia","Krasnodar","Kholmskaya",17494,44.85,38.39,45.
"Russia","Orenburg","Saraktash",17413,51.79,56.36,1.4e2
"Russia","Pskov","Nevel",17404,56.03,29.92,1.6e2
"Russia","Sakhalin","Nevelsk",17381,46.67,141.86,4.
"Russia","Novosibirsk","Krasnoobsk",17373,54.92,82.98,1.1e2
"Russia","Ingushetia","Kantyshevo",17363,43.22,44.63,5.1e2
"Russia","Yaroslavl","GavrilovYam",17351,57.300000000000004,39.85,1.e2
"Russia","Chelyabinsk","Plast",17306,54.370000000000005,60.81,3.e2
"Russia","Primorski","Kavalerovo",17281,44.27,135.05,2.1e2
"Russia","Leningrad","Kommunar",17275,59.620000000000005,30.400000000000002,60.
"Russia","Stavropol","Suvorovskaya",17261,44.19,42.65,4.6e2
"Russia","Leningrad","Nikolskoye",17200,59.5,34.96,1.8e2
"Russia","Kursk","Rylsk",17193,51.57,34.68,1.7e2
"Russia","Tambov","Stroitel",17176,50.7833,36.4833,"null"
"Russia","Leningrad","Boksitogorsk",17149,59.480000000000004,33.85,95.
"Russia","NizhnyNovgorod","Navashino",17123,55.53,42.2,76.
"Russia","Bryansk","Pochyop",17094,52.93,33.46,1.4e2
"Russia","Sakhalin","Poronaysk",17091,49.22,143.12,0
"Russia","Tatarstan","Menzelinsk",17043,55.72,53.1,90.
"Russia","Voronezh","Pridonskoy",17006,51.68,39.06,93.
"Russia","Bashkortostan","Baymak",16947,52.59,58.32,5.e2
"Russia","Krasnodar","Medvedovskaya",16941,45.45,39.03,12.
"Russia","Kostroma","Galich",16922,58.38,42.35,1.1e2
"Russia","Ulyanovsk","Novoulyanovsk",16889,54.17,48.38,73.
"Russia","Kaluga","Kondrovo",16881,54.81,35.93,1.4e2
"Russia","Saratov","Novouzensk",16866,50.46,48.14,23.
"Russia","Voronezh","Gribanovskiy",16801,51.46,41.97,1.6e2
"Russia","Chechnya","AchkhoyMartan",16779,43.19,45.29,2.4e2
"Russia","KhantyMansi","Pokachi",16747,61.75,75.5833,"null"
"Russia","Tatarstan","Vasilyevo",16730,55.84,48.75,58.
"Russia","Yaroslavl","Danilov",16573,58.18,40.18,1.6e2
"Russia","MariEl","Medvedevo",16572,56.63,47.82,1.1e2
"Russia","Tula","SeveroZadonsk",16569,54.03,38.4,2.3e2
"Russia","MoskovskayaOblast","Golitsyno",16539,55.61,36.980000000000004,1.9e2
"Russia","Volgograd","Pallasovka",16510,50.050000000000004,46.88,31.
"Russia","MoskovskayaOblast","Vostryakovo",16509,55.39,37.81,1.7e2
"Russia","Tatarstan","Kukmor",16505,56.18,50.89,1.e2
"Russia","Krasnoyarsk","Ilanskiy",16416,56.24,96.06,2.8e2
"Russia","Tula","Plavsk",16405,53.71,37.29,1.9e2
"Russia","Komi","Yemva",16404,62.59,50.86,1.1e2
"Russia","Udmurtia","Balezino",16389,57.99,52.99,1.5e2
"Russia","Vladimir","Lakinsk",16356,56.02,39.95,1.3e2
"Russia","Novosibirsk","Kochenyovo",16352,55.02,82.19,1.5e2
"Russia","Irkutsk","Chunskiy",16334,56.09,99.65,2.9e2
"Russia","Novosibirsk","Kupino",16252,54.36,77.28,1.1e2
"Russia","Yakutia","Aykhal",16222,66.,111.5,4.6e2
"Russia","Ingushetia","Surkhakhi",16215,43.19,44.910000000000004,6.9e2
"Russia","Karelia","Medvezhyegorsk",16211,62.92,34.45,39.
"Russia","Stavropol","Krasnogvardeyskoye",16169,45.85,41.52,49.
"Russia","Krasnoyarsk","Uzhur",16166,55.32,89.82000000000001,3.8e2
"Russia","Tver","Kashin",16152,57.36,37.61,1.2e2
"Russia","Astrakhan","Kamyzyak",16112,46.11,48.07,-24.
"Russia","Belgorod","Razumnoye",16098,50.54,36.7,1.3e2
"Russia","Dagestan","Belidzhi",16078,41.9,48.42,-12.
"Russia","Tyumen","Borovskiy",16046,57.04,65.73,57.
"Russia","Volgograd","Nikolajevsk",16044,50.02,45.43,8.
"Russia","Ryazan","Shilovo",16024,54.32,40.88,97.
"Russia","Kemerovo","NovyyGorodok",15993,54.3,86.2833,"null"
"Russia","Kaluga","Sukhinichi",15989,54.1,35.34,2.2e2
"Russia","Chechnya","TsotsinYurt",15970,43.24,46.,1.4e2
"Russia","Novosibirsk","Koltsovo",15938,54.92,83.25,1.9e2
"Russia","Bryansk","Trubchyovsk",15907,52.58,33.77,1.7e2
"Russia","Murmansk","Murmashi",15859,68.83,32.660000000000004,50.
"Russia","Stavropol","Arzgir",15838,45.37,44.22,69.
"Russia","Volgograd","Gorkovskiy",15815,48.69,44.4,1.1e2
"Russia","Buryatia","Selenginsk",15789,52.01,106.8,5.e2
"Russia","Novgorod","Pestovo",15778,58.6,35.800000000000004,1.2e2
"Russia","Rostov","Persianovskiy",15730,47.53,39.42,29.
"Russia","Murmansk","PolyarnyyeZori",15711,67.41,32.5,1.6e2
"Russia","Stavropol","Divnoye",15700,45.910000000000004,43.35,89.
"Russia","Irkutsk","Bodaybo",15689,57.85,114.19,2.8e2
"Russia","Perm","Aleksandrovsk",15676,59.160000000000004,57.57,1.7e2
"Russia","Orenburg","Yasnyy",15675,51.03,59.88,3.5e2
"Russia","Sverdlovsk","Degtyarsk",15675,56.7,60.1,3.6e2
"Russia","Vladimir","Melenki",15664,55.34,41.63,1.3e2
"Russia","Kirov","Sovetsk",15646,57.58,48.96,1.2e2
"Russia","Chelyabinsk","Sim",15622,55.,57.69,2.e2
"Russia","Murmansk","Nikel",15605,69.41,30.22,1.4e2
"Russia","KhabarovskKrai","Vyazemskiy",15605,47.53,134.75,77.
"Russia","Murmansk","Skalistyy",15605,69.26,33.35,9.
"Russia","Vladimir","Pokrov",15604,55.910000000000004,39.18,1.1e2
"Russia","Vladimir","Karabanovo",15604,56.32,38.7,1.7e2
"Russia","AltaiRepublic","Gornyak",15577,50.99,81.47,2.8e2
"Russia","Chelyabinsk","Karabash",15548,55.480000000000004,60.22,3.5e2
"Russia","Kursk","Shchigry",15540,51.870000000000005,36.910000000000004,2.1e2
"Russia","Vologda","Gryazovets",15535,58.88,40.25,1.9e2
"Russia","SaintPetersburg","Shushary",15503,59.77,30.47,16.
"Russia","Yakutia","Udachnyy",15495,66.42,112.4,3.e2
"Russia","Vladimir","Strunino",15474,56.38,38.57,1.7e2
"Russia","Stavropol","Donskoye",15469,45.43,41.980000000000004,1.3e2
"Russia","Kemerovo","Yashkino",15442,55.88,85.43,2.5e2
"Russia","AltaiRepublic","Mayma",15428,52.050000000000004,85.92,2.5e2
"Russia","Irkutsk","Baykalsk",15422,51.51,104.15,5.5e2
"Russia","Leningrad","Svetogorsk",15406,61.120000000000005,28.85,48.
"Russia","Zabaykalsky","Nerchinsk",15360,52.,116.55,4.7e2
"Russia","MoskovskayaOblast","Moskovskiy",15356,55.6,37.36,1.8e2
"Russia","AltaiRepublic","Kulunda",15345,52.58,78.95,1.3e2
"Russia","Khakasia","Abaza",15335,52.660000000000004,90.09,5.e2
"Russia","Vladimir","Petushki",15307,55.93,39.47,1.3e2
"Russia","Kemerovo","Bachatskiy",15304,54.25,86.10000000000001,3.2e2
"Russia","Rostov","Bagaevskaya",15252,47.32,40.4,5.
"Russia","AltaiRepublic","Novosilikatnyy",15241,53.32,83.64,2.e2
"Russia","Bryansk","Shkotovo17",15218,53.45,34.410000000000004,1.8e2
"Russia","MoskovskayaOblast","Sofrino",15212,56.15,37.93,1.8e2
"Russia","Adygeya","Giaginskaya",15169,44.87,40.07,1.2e2
"Russia","Perm","Ocher",15130,57.88,54.7,1.4e2
"Russia","KarachaiCherkessRepublic","Uchkeken",15118,43.94,42.51,9.6e2
"Russia","Krasnoyarsk","Kodinsk",15107,58.69,99.18,1.8e2
"Russia","Volgograd","Leninsk",15097,48.71,45.2,-7.
"Russia","Ivanovo","Yuzha",15094,56.58,42.01,1.e2
"Russia","Volgograd","Dubovka",15057,49.06,44.81,32.
"Russia","Voronezh","Boguchar",15048,49.94,40.56,77.
"Russia","Volgograd","Yelan",15046,50.95,43.730000000000004,1.2e2
"Russia","Tula","Belyov",15033,53.81,36.13,1.6e2
"Russia","Khakasia","UstAbakan",15022,53.85,91.37,2.5e2
"Russia","Novosibirsk","Suzun",15007,53.79,82.31,1.4e2
"Russia","Primorski","Vrangel",14981,42.730000000000004,133.08,12.
"Russia","Kurgan","Kataysk",14951,56.29,62.58,1.1e2
"Russia","Belgorod","Chernyanka",14911,50.94,37.81,1.2e2
"Russia","Sverdlovsk","Aramil",14911,56.7,60.83,2.2e2
"Russia","Krasnodar","Ladozhskaya",14904,45.31,39.94,95.
"Russia","Saratov","KrasnyyKut",14879,50.95,46.97,45.
"Russia","Tatarstan","KamskiyePolyany",14863,55.42,51.33,1.4e2
"Russia","Volgograd","PetrovVal",14853,50.15,45.2,97.
"Russia","NorthOssetia","Zavodskoy",14837,43.12,44.71,5.9e2
"Russia","NizhnyNovgorod","Pervomaysk",14831,54.870000000000005,43.81,1.6e2
"Russia","AltaiRepublic","Pavlovsk",14827,53.33,82.98,1.5e2
"Russia","KhabarovskKrai","Chegdomyn",14807,51.120000000000005,133.02,3.6e2
"Russia","Chechnya","BachiYurt",14788,43.22,46.2,2.e2
"Russia","Primorski","Slavyanka",14742,42.87,131.37,51.
"Russia","Novgorod","Chudovo",14730,59.13,31.66,32.
"Russia","Rostov","Tsimlyansk",14727,47.65,42.1,81.
"Russia","AltaiRepublic","Belokurikha",14727,51.99,84.99,3.3e2
"Russia","Orenburg","Akbulak",14719,51.0058,55.6194,"null"
"Russia","Irkutsk","Svirsk",14712,53.09,103.33,4.4e2
"Russia","Rostov","Chaltyr",14689,47.29,39.5,18.
"Russia","Rostov","Kuleshovka",14668,47.07,39.56,6.
"Russia","MoskovskayaOblast","Peresvet",14654,56.4167,38.1833,"null"
"Russia","Chelyabinsk","Novosineglazovskiy",14620,55.03,61.38,2.5e2
"Russia","Krasnoyarsk","Kuragino",14620,53.9,92.67,2.8e2
"Russia","Krasnodar","Krylovskaya",14605,46.32,39.97,27.
"Russia","Volgograd","Krasnoslobodsk",14574,48.71,44.57,-4.
"Russia","Irkutsk","UstOrdynskiy",14538,52.800000000000004,104.75,5.e2
"Russia","Kaluga","Tovarkovo",14511,54.68,35.94,1.5e2
"Russia","Sverdlovsk","Koltsovo",14493,56.76,60.82,2.4e2
"Russia","Tatarstan","Dzhalil",14476,55.02,52.74,2.9e2
"Russia","Chelyabinsk","Roza",14444,54.910000000000004,61.46,2.3e2
"Russia","Krasnodar","Varenikovskaya",14409,45.12,37.65,15.
"Russia","Novgorod","Valday",14379,57.97,33.25,2.1e2
"Russia","Zabaykalsky","Shilka",14371,51.85,116.03,4.9e2
"Russia","Kurgan","Dalmatovo",14356,56.26,62.92,80.
"Russia","Rostov","MatveyevKurgan",14342,47.56,38.87,26.
"Russia","Bryansk","Klimovo",14324,52.38,32.19,1.7e2
"Russia","Tver","Kalyazin",14305,57.24,37.84,1.2e2
"Russia","SaintPetersburg","Strelna",14302,59.86,30.05,12.
"Russia","Tambov","Zherdevka",14296,51.85,41.46,1.2e2
"Russia","Zabaykalsky","SherlovayaGora",14287,50.53,116.3,7.5e2
"Russia","Kalmykia","Kaspiyskiy",14278,45.39,47.37,-26.
"Russia","Kemerovo","Gramoteino",14249,54.52,86.37,2.2e2
"Russia","MoskovskayaOblast","Lopatinskiy",14219,55.33,38.730000000000004,1.2e2
"Russia","Tula","Venyov",14211,54.35,38.27,1.9e2
"Russia","Belgorod","Borisovka",14203,50.620000000000005,35.99,2.1e2
"Russia","KhabarovskKrai","Solnechnyy",14188,50.59,137.03,35.
"Russia","Komi","Severnyy",14182,67.6,64.12,1.2e2
"Russia","KhantyMansi","BelyyYar",14165,62.26,73.18,59.
"Russia","Samara","Sukhodol",14160,53.88,51.22,98.
"Russia","Dagestan","Akhty",14080,41.46,47.730000000000004,1.1e3
"Russia","Volgograd","SrednyayaAkhtuba",14052,48.71,44.87,12.
"Russia","Mordovia","Komsomolskiy",14018,54.45,45.82,1.9e2
"Russia","Saratov","Arkadak",13987,51.94,43.5,1.3e2
"Russia","Primorski","Chernigovka",13969,44.34,132.59,83.
"Russia","Krasnodar","Anapskaya",13965,44.9,37.38,24.
"Russia","Tver","Toropets",13959,56.5,31.63,1.8e2
"Russia","Bashkortostan","Iglino",13958,54.84,56.44,1.2e2
"Russia","Karelia","Kem",13948,64.95,34.57,2.
"Russia","Chelyabinsk","Gornyak",13946,55.14,61.690000000000005,2.e2
"Russia","Chelyabinsk","Krasnogorskiy",13940,54.6,61.22,2.4e2
"Russia","Murmansk","Snezhnogorsk",13932,69.19,33.230000000000004,99.
"Russia","Dagestan","Leninkent",13912,42.97,47.35,1.2e2
"Russia","Bryansk","Navlya",13897,52.83,34.5,1.8e2
"Russia","Tyumen","Golyshmanovo",13870,56.38,68.38,1.2e2
"Russia","Tatarstan","Mamadysh",13860,55.71,51.410000000000004,54.
"Russia","Dagestan","Babayurt",13857,43.6,46.78,0
"Russia","Vladimir","Kameshkovo",13852,56.35,41.,1.1e2
"Russia","AltaiRepublic","Altayskoye",13852,51.95,85.33,3.e2
"Russia","Smolensk","Verkhnedneprovskiy",13832,54.980000000000004,33.33,2.e2
"Russia","Ryazan","Korablino",13808,53.92,40.01,1.3e2
"Russia","Kursk","Oboyan",13801,51.21,36.45,1.9e2
"Russia","Vladimir","Gorokhovets",13789,56.19,42.7,1.2e2
"Russia","Kemerovo","Tyazhinskiy",13737,56.120000000000005,88.51,2.e2
"Russia","Sverdlovsk","NovayaLyalya",13706,59.06,60.6,1.e2
"Russia","Bryansk","Kletnya",13691,53.39,33.22,1.8e2
"Russia","Zabaykalsky","Baley",13676,51.6,116.63,8.e2
"Russia","Voronezh","Somovo",13661,51.730000000000004,39.36,1.1e2
"Russia","Chuvashia","Tsivilsk",13636,55.86,47.47,89.
"Russia","Stavropol","Krasnokumskoye",13630,44.18,43.5,2.4e2
"Russia","Saratov","Khvalynsk",13628,52.49,48.1,56.
"Russia","Rostov","Donskoy",13627,47.4,40.26,3.
"Russia","Rostov","Likhovskoy",13617,48.15,40.19,2.e2
"Russia","AltaiRepublic","Pospelikha",13586,51.95,81.77,1.8e2
"Russia","MoskovskayaOblast","Krasnozavodsk",13586,56.45,38.22,2.e2
"Russia","Tyva","AkDovurak",13578,51.18,90.60000000000001,8.4e2
"Russia","Sverdlovsk","Arti",13558,56.42,58.53,2.4e2
"Russia","Leningrad","Syasstroy",13545,60.14,32.57,9.
"Russia","Chelyabinsk","Yuryuzan",13500,54.86,58.42,3.8e2
"Russia","Saratov","Stepnoye",13498,51.4,46.87,66.
"Russia","SaintPetersburg","Pavlovsk",13474,59.68,30.45,36.
"Russia","MoskovskayaOblast","Selyatino",13454,55.52,36.97,1.9e2
"Russia","MoskovskayaOblast","Zvenigorod",13422,55.730000000000004,36.85,1.4e2
"Russia","Amur","Zavitinsk",13390,50.120000000000005,129.45,2.3e2
"Russia","Krasnodar","Kalininskaya",13363,45.480000000000004,38.660000000000004,5.
"Russia","Kemerovo","Inskoy",13363,54.43,86.42,2.1e2
"Russia","Primorski","Chuguyevka",13354,44.160000000000004,133.87,2.6e2
"Russia","Novgorod","MalayaVishera",13345,58.85,32.2,61.
"Russia","Krasnodar","Petrovskaya",13340,45.43,37.96,0
"Russia","Pskov","Opochka",13334,56.71,28.650000000000002,90.
"Russia","Tula","Skuratovskiy",13325,54.11,37.6,2.5e2
"Russia","MoskovskayaOblast","Udelnaya",13283,55.620000000000005,38.,1.2e2
"Russia","Tambov","Pervomayskiy",13282,53.230000000000004,40.300000000000004,1.5e2
"Russia","Novosibirsk","Maslyanino",13275,54.34,84.21000000000001,2.e2
"Russia","Murmansk","Zaozyorsk",13275,69.4,32.44,68.
"Russia","Chechnya","Goyty",13250,43.160000000000004,45.62,2.2e2
"Russia","MoskovskayaOblast","Ruza",13246,55.7,36.2,1.7e2
"Russia","Lipetsk","Chaplygin",13239,53.24,39.96,1.3e2
"Russia","Omsk","Tavricheskoye",13239,54.58,73.63,93.
"Russia","Dagestan","Karabudakhkent",13207,42.71,47.56,2.1e2
"Russia","Kostroma","Vetluzhskiy",13195,58.39,45.45,1.1e2
"Russia","Arkhangelsk","Vychegodskiy",13192,61.24,46.910000000000004,78.
"Russia","Orenburg","Novosergiyevka",13188,52.09,53.64,1.3e2
"Russia","Kaliningrad","Gvardeysk",13186,54.65,21.07,5.
"Russia","Perm","Polazna",13159,58.29,56.410000000000004,1.7e2
"Russia","Chechnya","Oyskhara",13131,43.26,46.25,1.9e2
"Russia","Krasnodar","Starovelichkovskaya",13111,45.43,38.730000000000004,12.
"Russia","Zabaykalsky","Pervomayskiy",13106,51.67,115.63,6.7e2
"Russia","Krasnoyarsk","Uyar",13094,55.81,94.31,3.3e2
"Russia","Voronezh","Talovaya",13080,51.11,40.730000000000004,1.3e2
"Russia","Buryatia","Zakamensk",13077,50.38,103.27,1.2e3
"Russia","Zabaykalsky","Aginskoye",13074,51.1,114.53,6.8e2
"Russia","MoskovskayaOblast","Yakhroma",13070,56.300000000000004,37.480000000000004,1.4e2
"Russia","Chuvashia","Kozlovka",13069,55.76,48.2,1.8e2
"Russia","Sverdlovsk","Bulanash",13056,57.27,61.99,1.4e2
"Russia","Karelia","Pitkyaranta",13028,61.57,31.48,34.
"Russia","Amur","Progress",13014,49.75,129.68,1.4e2
"Russia","Moscow","Vostochnyy",13011,55.82,37.87,1.7e2
"Russia","Chelyabinsk","Nyazepetrovsk",12984,56.050000000000004,59.6,3.2e2
"Russia","MoskovskayaOblast","Taldom",12953,56.730000000000004,37.53,1.4e2
"Russia","Irkutsk","Kirensk",12940,57.79,108.11,2.5e2
"Russia","Krasnodar","Staroderevyankovskaya",12918,46.12,38.97,11.
"Russia","Khakasia","Sorsk",12914,54.,90.25,7.6e2
"Russia","Ryazan","Mikhaylov",12884,54.230000000000004,39.02,1.2e2
"Russia","Ivanovo","Zavolzhsk",12847,57.480000000000004,42.14,1.3e2
"Russia","Krasnodar","Vasyurinskaya",12830,45.12,39.42,42.
"Russia","Saratov","Svetlyy",12778,51.67,45.63,2.e2
"Russia","Perm","Gornozavodsk",12726,58.38,58.32,3.e2
"Russia","KhabarovskKrai","Elban",12719,50.09,136.51,57.
"Russia","Vladimir","Sudogda",12711,55.95,40.86,97.
"Russia","KabardinoBalkaria","Nartan",12694,43.51,43.7,3.9e2
"Russia","Pskov","Pechory",12693,57.82,27.6,78.
"Russia","Kemerovo","Yaya",12689,56.2,86.44,1.3e2
"Russia","Primorski","Livadiya",12652,42.87,132.68,11.
"Russia","Zabaykalsky","Chernyshevsk",12632,52.53,117.,5.3e2
"Russia","NizhnyNovgorod","Lukoyanov",12627,55.04,44.49,1.9e2
"Russia","Kirov","Lyangasovo",12626,58.52,49.45,1.4e2
"Russia","Stavropol","Solnechnodolsk",12605,45.26,41.34,1.9e2
"Russia","Volgograd","SvetlyyYar",12586,48.480000000000004,44.79,10.
"Russia","Omsk","Nazyvajevsk",12578,55.57,71.33,1.2e2
"Russia","Rostov","Pokrovskoye",12576,47.42,38.9,13.
"Russia","Voronezh","Kantemirovka",12551,49.7,39.86,1.1e2
"Russia","Leningrad","Schlusselburg",12546,59.95,31.03,6.
"Russia","Sakhalin","Uglegorsk",12534,49.08,142.03,-2.
"Russia","Sverdlovsk","Beloyarskiy",12534,56.76,61.38,2.e2
"Russia","AltaiRepublic","Blagoveshchenka",12511,52.83,79.87,1.1e2
"Russia","Kirov","Sosnovka",12428,56.26,51.28,84.
"Russia","NorthOssetia","Elkhotovo",12425,43.34,44.2,3.1e2
"Russia","Sverdlovsk","VerkhniyTagil",12406,57.38,59.96,2.6e2
"Russia","Zabaykalsky","Karymskoye",12398,51.620000000000005,114.35000000000001,6.e2
"Russia","Kirov","Zujevka",12367,58.4060241,51.1388605,1.5e2
"Russia","Krasnodar","Starotitarovskaya",12351,45.21,37.14,12.
"Russia","Karelia","Belomorsk",12344,64.53,34.77,5.
"Russia","Kaliningrad","Neman",12320,55.03,22.03,29.
"Russia","Kaluga","Zhukovo",12312,55.03,36.74,1.3e2
"Russia","Arkhangelsk","Konosha",12306,60.97,40.26,2.e2
"Russia","Udmurtia","Kambarka",12295,56.25,54.18,65.
"Russia","Vologda","Babajevo",12292,59.39,35.94,1.4e2
"Russia","Kaluga","Sosenskiy",12289,54.06,35.96,2.2e2
"Russia","AltaiRepublic","Sibirskiy",12283,53.58,83.77,1.8e2
"Russia","Kaliningrad","Zelenogradsk",12266,54.96,20.490000000000002,-3.
"Russia","Rostov","Kamenolomni",12262,47.67,40.21,71.
"Russia","Orel","Bolkhov",12234,53.45,36.02,1.5e2
"Russia","MoskovskayaOblast","Zaprudnya",12233,56.57,37.43,1.3e2
"Russia","Voronezh","Ertil",12227,51.86,40.81,1.3e2
"Russia","Dagestan","Kasumkent",12225,41.68,48.14,5.1e2
"Russia","Adygeya","Adygeysk",12196,44.88,39.19,48.
"Russia","Kaluga","Kremenki",12163,54.89,37.13,1.2e2
"Russia","Leningrad","Volosovo",12148,59.45,29.5,1.4e2
"Russia","Zabaykalsky","Mogocha",12146,53.730000000000004,119.77,6.3e2
"Russia","Rostov","Mayskiy",12136,47.7,40.1,1.2e2
"Russia","Leningrad","Siverskiy",12131,59.35,30.080000000000002,1.e2
"Russia","Omsk","Bolshereche",12108,56.09,74.62,75.
"Russia","Bashkortostan","Kandry",12100,54.57,54.120000000000005,1.8e2
"Russia","Novosibirsk","Chulym",12074,55.1,80.96000000000001,1.4e2
"Russia","Krasnoyarsk","Yemelyanovo",12059,56.19,92.67,2.e2
"Russia","Krasnodar","Novominskaya",12049,46.32,38.96,24.
"Russia","NizhnyNovgorod","Vorsma",12047,55.99,43.27,88.
"Russia","Orel","Znamenka",12047,52.92,36.02,1.7e2
"Russia","Stavropol","Kurskaya",12036,44.050000000000004,44.45,1.7e2
"Russia","Primorski","Pogranichnyy",12007,44.42,131.38,1.7e2
"Russia","Sverdlovsk","NizhniyeSergi",12003,56.65,59.29,3.1e2
"Russia","NorthOssetia","Digora",11999,43.160000000000004,44.160000000000004,4.5e2
"Russia","Volgograd","Ilovlya",11996,49.300000000000004,43.980000000000004,40.
"Russia","NizhnyNovgorod","Uren",11991,57.46,45.78,1.e2
"Russia","Tyumen","Vinzili",11971,56.97,65.77,72.
"Russia","SaintPetersburg","Pargolovo",11962,60.08,30.26,33.
"Russia","Kemerovo","Krasnobrodskiy",11952,54.17,86.47,2.5e2
"Russia","Omsk","Cherlak",11917,54.15,74.8,76.
"Russia","Ivanovo","Yuryevets",11912,57.33,43.11,98.
"Russia","Astrakhan","Narimanov",11905,46.69,47.85,-22.
"Russia","Chechnya","Geldagan",11901,43.21,46.04,1.7e2
"Russia","Kurgan","Petukhovo",11896,55.07,67.86,1.3e2
"Russia","Sakhalin","AleksandrovskSakhalinskiy",11885,50.9,142.16,9.
"Russia","Belgorod","Volokonovka",11883,50.480000000000004,37.86,1.e2
"Russia","SaintPetersburg","Zelenogorsk",11866,60.2,29.69,25.
"Russia","Krasnoyarsk","Dubinino",11851,55.67,89.10000000000001,2.7e2
"Russia","Ingushetia","Sagopshi",11848,43.49,44.58,3.9e2
"Russia","Krasnodar","Uspenskoye",11843,44.83,41.4,2.5e2
"Russia","Amur","Seryshevo",11839,51.06,128.21,1.6e2
"Russia","Bryansk","Lokot",11836,52.57,34.58,2.1e2
"Russia","Bashkortostan","Krasnousolskiy",11819,53.89,56.47,1.5e2
"Russia","Bryansk","Surazh",11812,53.02,32.39,1.7e2
"Russia","Dagestan","Kayakent",11805,42.38,47.9,1.4e2
"Russia","Tver","Likhoslavl",11790,57.13,35.46,1.7e2
"Russia","Dagestan","NizhneyeKazanishche",11765,42.76,47.160000000000004,6.4e2
"Russia","Kaliningrad","Pionerskiy",11761,54.95,20.22,26.
"Russia","Kaluga","Borovsk",11747,55.21,36.49,1.6e2
"Russia","Pskov","Porkhov",11737,57.77,29.53,61.
"Russia","Penza","Mokshan",11731,53.44,44.62,2.1e2
"Russia","Ingushetia","Yandare",11730,43.27,44.92,5.e2
"Russia","Chuvashia","Kugesi",11727,56.03,47.300000000000004,1.8e2
"Russia","NizhnyNovgorod","Pochinki",11724,54.7,44.85,1.2e2
"Russia","Perm","Gremyachinsk",11719,58.56,57.84,3.1e2
"Russia","Sakhalin","Dolinsk",11712,47.35,142.8,10.
"Russia","Krasnodar","Platnirovskaya",11710,45.39,39.39,40.
"Russia","Kirov","Luza",11689,60.620000000000005,47.27,97.
"Russia","Krasnodar","Kavkazskaya",11680,45.45,40.67,1.4e2
"Russia","Yakutia","Markha",11648,62.1,129.76,1.1e2
"Russia","Ulyanovsk","Cherdakly",11646,54.33,48.83,78.
"Russia","Tatarstan","Tetyushi",11612,54.92,48.83,1.7e2
"Russia","Krasnodar","Oktyabrskaya",11608,46.29,39.82,61.
"Russia","Kirov","BelayaKholunitsa",11581,58.84,50.84,1.4e2
"Russia","KabardinoBalkaria","Shalushka",11577,43.53,43.57,4.8e2
"Russia","NizhnyNovgorod","Chkalovsk",11569,56.76,43.24,91.
"Russia","Tver","Redkino",11553,56.63,36.28,1.3e2
"Russia","NorthOssetia","Sunzha",11548,43.06,44.82,6.9e2
"Russia","Chelyabinsk","Bazhovo",11537,55.06,61.620000000000005,2.1e2
"Russia","Komi","NizhniyOdes",11516,63.64,54.86,1.8e2
"Russia","NizhnyNovgorod","Mulino",11513,56.28,42.93,1.2e2
"Russia","MariEl","Zvenigovo",11504,55.97,48.02,71.
"Russia","Penza","Zemetchino",11492,53.5,42.62,1.3e2
"Russia","Primorski","KamenRybolov",11489,44.74,132.06,75.
"Russia","Krasnoyarsk","Zaozyornyy",11477,55.96,94.7,2.1e2
"Russia","Vologda","Kaduy",11469,59.2,37.15,1.2e2
"Russia","NorthOssetia","Nogir",11469,43.08,44.64,6.2e2
"Russia","AltaiRepublic","Mikhaylovskoye",11467,51.82,79.72,1.7e2
"Russia","MoskovskayaOblast","Drezna",11452,55.75,38.84,1.2e2
"Russia","KhabarovskKrai","Khor",11441,47.88,134.95,58.
"Russia","AltaiRepublic","Shipunovo",11431,52.17,82.23,1.9e2
"Russia","Stavropol","Praskoveya",11420,44.74,44.2,1.1e2
"Russia","Amur","Magdagachi",11415,53.45,125.8,3.4e2
"Russia","Kirov","Kirs",11405,59.33,52.27,1.7e2
"Russia","Bryansk","Pogar",11382,52.56,33.26,1.5e2
"Russia","Stavropol","Levokumskoye",11377,44.82,44.660000000000004,67.
"Russia","Vladimir","Yuryevets",11352,56.1,40.27,1.3e2
"Russia","Rostov","Peschanokopskoye",11340,46.2,41.08,74.
"Russia","MoskovskayaOblast","Lvovskiy",11337,55.31,37.53,1.8e2
"Russia","KhantyMansi","Mezhdurechenskiy",11312,59.6,65.93,38.
"Russia","Dagestan","SultanYangiyurt",11308,43.22,46.87,42.
"Russia","Adygeya","Khanskaya",11297,44.68,39.96,1.6e2
"Russia","Rostov","UstDonetskiy",11279,47.64,40.87,47.
"Russia","Rostov","Tatsinskaya",11258,48.2,41.28,91.
"Russia","Primorski","Khorol",11245,44.42,132.1,97.
"Russia","Bashkortostan","Chekmagush",11225,55.13,54.660000000000004,1.5e2
"Russia","Rostov","Glubokiy",11225,48.52,40.33,63.
"Russia","AltaiRepublic","Volchikha",11212,52.03,80.38,2.1e2
"Russia","Orenburg","Novoorsk",11212,51.38,58.980000000000004,2.1e2
"Russia","Krasnoyarsk","Boguchany",11209,58.38,97.45,1.4e2
"Russia","AltaiRepublic","Zmeinogorsk",11206,51.160000000000004,82.2,4.1e2
"Russia","Krasnodar","Anastasiyevskaya",11204,45.21,37.89,-23.
"Russia","Komi","Mikun",11202,62.370000000000005,50.06,1.3e2
"Russia","Chukotka","Anadyr",11193,64.75,177.48,-8.
"Russia","Karelia","Suoyarvi",11173,62.08,32.35,1.6e2
"Russia","Chelyabinsk","Starokamyshinsk",11158,55.06,61.54,2.2e2
"Russia","Chechnya","MeskerYurt",11147,43.25,45.910000000000004,1.4e2
"Russia","Vologda","Vytegra",11140,61.,36.4,67.
"Russia","Kaliningrad","Guryevsk",11132,54.77,20.61,20.
"Russia","Dagestan","Botlikh",11131,42.660000000000004,46.22,8.4e2
"Russia","Leningrad","Vyritsa",11107,59.42,30.35,66.
"Russia","Vologda","Kharovsk",11092,59.96,40.19,1.6e2
"Russia","Tatarstan","Urussu",11082,54.58,53.45,98.
"Russia","Sverdlovsk","Troitskiy",11081,57.06,63.730000000000004,72.
"Russia","Rostov","Tselina",11075,46.53,41.03,1.1e2
"Russia","Stavropol","SoldatoAleksandrovskoye",11059,44.27,43.76,1.8e2
"Russia","Kostroma","Neya",11046,58.28,43.88,1.e2
"Russia","Stavropol","Kursavka",11043,44.46,42.51,3.9e2
"Russia","YamaloNenets","Pangody",11042,65.92,74.83,48.
"Russia","Sverdlovsk","Bisert",11032,56.86,59.050000000000004,3.e2
"Russia","Ulyanovsk","Novospasskoye",11019,53.15,47.76,70.
"Russia","Rostov","Chertkovo",11012,49.39,40.28,1.e2
"Russia","Arkhangelsk","Kargopol",11007,61.5,38.97,1.3e2
"Russia","Leningrad","Ivangorod",10999,59.370000000000005,28.22,33.
"Russia","Kaluga","Vorotynsk",10977,54.43,36.050000000000004,1.4e2
"Russia","Tyva","Shagonar",10973,51.53,92.8,5.4e2
"Russia","Sverdlovsk","Baranchinskiy",10970,58.160000000000004,59.7,2.3e2
"Russia","Ivanovo","Navoloki",10951,57.47,41.96,1.e2
"Russia","KabardinoBalkaria","ChegemVtoroy",10951,43.6,43.6,4.5e2
"Russia","MoskovskayaOblast","Fryanovo",10948,56.13,38.45,1.5e2
"Russia","Smolensk","Yelnya",10946,54.58,33.19,2.3e2
"Russia","Sverdlovsk","VerkhnyayaSinyachikha",10934,57.97,61.660000000000004,1.3e2
"Russia","Novosibirsk","Kargat",10934,55.2,80.28,1.3e2
"Russia","JewishRepublic","Obluche",10932,49.,131.08,3.3e2
"Russia","Krasnodar","Starokorsunskaya",10915,45.06,39.31,37.
"Russia","KabardinoBalkaria","Islamey",10899,43.68,43.46,5.4e2
"Russia","AltaiRepublic","Troitskoye",10887,52.980000000000004,84.66,2.3e2
"Russia","Volgograd","Krasnooktyabrskiy",10882,48.870000000000005,44.76,19.
"Russia","Omsk","Muromtsevo",10881,56.370000000000005,75.25,76.
"Russia","Komi","Vorgashor",10876,67.59,63.800000000000004,2.e2
"Russia","Astrakhan","KrasnyyYar",10876,46.53,48.34,-24.
"Russia","Irkutsk","NovayaIgirma",10857,57.14,103.91,3.e2
"Russia","Tver","Ozyornyy",10851,57.9,33.65,2.e2
"Russia","Chechnya","Samashki",10848,43.29,45.300000000000004,2.1e2
"Russia","Novgorod","Soltsy",10844,58.13,30.330000000000002,38.
"Russia","Chuvashia","Vurnary",10826,55.49,46.96,1.7e2
"Russia","Kaliningrad","Raushiai",10812,54.94,20.150000000000002,31.
"Russia","MoskovskayaOblast","Mikhnyovo",10798,55.13,37.95,1.8e2
"Russia","MoskovskayaOblast","Ozherele",10796,54.79,38.27,2.1e2
"Russia","Krasnodar","Kazanskaya",10794,45.410000000000004,40.44,1.1e2
"Russia","Krasnodar","Psebay",10786,44.11,40.77,6.8e2
"Russia","Chechnya","Mayrtup",10778,43.2,46.13,2.1e2
"Russia","Chelyabinsk","Pervomayskiy",10765,54.870000000000005,61.17,2.7e2
"Russia","NorthOssetia","Oktyabrskoye",10763,43.07,44.74,6.4e2
"Russia","Tula","Pervomayskiy",10740,54.050000000000004,37.53,2.3e2
"Russia","Chuvashia","Yadrin",10735,55.94,46.21,69.
"Russia","Sakhalin","Nogliki",10734,51.83,143.11,11.
"Russia","AltaiRepublic","Beloyarsk",10733,53.45,83.91,1.3e2
"Russia","Omsk","Lyubinskiy",10727,55.15,72.7,1.1e2
"Russia","Sverdlovsk","VerkhnyayaTura",10717,58.36,59.82,2.3e2
"Russia","Udmurtia","Kez",10706,57.9,53.72,2.e2
"Russia","Kurgan","Shchuchye",10706,55.21,62.730000000000004,1.6e2
"Russia","MoskovskayaOblast","Vysokovsk",10701,56.32,36.550000000000004,2.e2
"Russia","Zabaykalsky","Khilok",10685,51.35,110.45,8.e2
"Russia","MoskovskayaOblast","Obukhovo",10675,54.83,38.28,2.e2
"Russia","Chelyabinsk","Lokomotivnyy",10663,53.,60.57,3.3e2
"Russia","Kirov","Nolinsk",10654,57.56,49.94,89.
"Russia","Bashkortostan","Kushnarenkovo",10650,55.11,55.35,91.
"Russia","Murmansk","Kola",10644,68.92,33.11,1.5e2
"Russia","Buryatia","Taksimo",10639,56.34,114.88,6.2e2
"Russia","Rostov","Samarskoye",10638,46.93,39.68,8.
"Russia","Tambov","Sosnovka",10638,53.230000000000004,41.37,1.3e2
"Russia","KabardinoBalkaria","Kenzhe",10636,43.5,43.56,5.1e2
"Russia","Karelia","Nadvoitsy",10634,63.870000000000005,34.32,79.
"Russia","Yakutia","Chulman",10634,56.85,124.91,7.2e2
"Russia","Chelyabinsk","Uvelskiy",10625,54.44,61.36,2.3e2
"Russia","Krasnodar","Staromyshastovskaya",10625,45.34,39.08,23.
"Russia","Rostov","Ayutinskiy",10623,47.77,40.14,1.e2
"Russia","Primorski","Pokrovka",10614,43.95,131.62,46.
"Russia","Tver","Kuvshinovo",10612,57.04,34.18,2.5e2
"Russia","MoskovskayaOblast","Davydovo",10606,55.61,38.85,1.3e2
"Russia","Karelia","Pudozh",10605,61.800000000000004,36.53,44.
"Russia","Tatarstan","NizhnyayaMaktama",10600,54.85,52.370000000000005,1.5e2
"Russia","Novosibirsk","Kolyvan",10584,55.31,82.74,1.4e2
"Russia","Vologda","Belozyorsk",10577,60.04,37.79,1.1e2
"Russia","Buryatia","Zarechnyy",10565,51.85,107.53,5.e2
"Russia","Tula","Sokolniki",10563,54.050000000000004,38.47,2.1e2
"Russia","Perm","Yayva",10562,59.34,57.26,1.4e2
"Russia","MariEl","Sovetskiy",10561,56.76,48.480000000000004,1.5e2
"Russia","Buryatia","Onokhoy",10561,51.92,108.03,5.3e2
"Russia","KabardinoBalkaria","Zayukovo",10559,43.62,43.33,7.7e2
"Russia","Zabaykalsky","Gornyy",10559,62.0958,126.702,"null"
"Russia","Dagestan","Tarki",10554,42.94,47.49,3.5e2
"Russia","Novosibirsk","Krasnozerskoye",10542,54.,79.24,1.4e2
"Russia","NizhnyNovgorod","Volodarsk",10510,56.230000000000004,43.19,75.
"Russia","Adygeya","Tulskiy",10508,44.51,40.18,2.8e2
"Russia","KabardinoBalkaria","Khasanya",10495,43.43,43.58,6.1e2
"Russia","MoskovskayaOblast","Shakhovskaya",10491,56.03,35.51,2.4e2
"Russia","Samara","Alekseyevka",10489,53.25,50.44,68.
"Russia","NorthOssetia","Mikhaylovskoye",10479,43.1,44.64,6.1e2
"Russia","Krasnodar","Staronizhestebliyevskaya",10478,45.37,38.44,6.
"Russia","Novgorod","Okulovka",10470,58.370000000000005,33.3,1.7e2
"Russia","Novosibirsk","Ordynskoye",10465,54.370000000000005,81.9,1.3e2
"Russia","Vologda","Totma",10461,59.97,42.76,1.2e2
"Russia","Arkhangelsk","Plesetsk",10460,62.72,40.28,1.3e2
"Russia","Chelyabinsk","Bredy",10450,52.42,60.34,3.e2
"Russia","Irkutsk","Kuytun",10414,54.34,101.5,5.3e2
"Russia","Chelyabinsk","Minyar",10412,55.07,57.56,1.9e2
"Russia","Leningrad","ImeniMorozova",10412,59.980000000000004,31.03,20.
"Russia","Sverdlovsk","Volchansk",10408,59.93,60.07,2.2e2
"Russia","Krasnodar","Novomikhaylovskiy",10405,44.25,38.85,26.
"Russia","Mordovia","ZubovaPolyana",10389,54.08,42.83,1.2e2
"Russia","Bashkortostan","Serafimovskiy",10360,54.43,53.82,1.7e2
"Russia","Belgorod","Rakitnoye",10357,50.83,35.83,1.9e2
"Russia","Krasnodar","Maryanskaya",10353,45.1,38.65,15.
"Russia","Krasnoyarsk","Solnechnyy",10350,56.1,92.87,2.4e2
"Russia","Saratov","BazarnyyKarabulak",10332,52.27,46.42,1.2e2
"Russia","Dagestan","YuzhnoSukhokumsk",10330,44.7,45.45,19.
"Russia","Omsk","Tyukalinsk",10326,55.870000000000005,72.2,1.2e2
"Russia","KhabarovskKrai","Pereyaslavka",10320,47.96,134.84,48.
"Russia","MoskovskayaOblast","Pravdinskiy",10317,56.07,37.85,1.9e2
"Russia","Sverdlovsk","Pyshma",10310,56.95,63.24,76.
"Russia","Tula","Bolokhovo",10296,54.09,37.82,2.2e2
"Russia","Zabaykalsky","Zabaykalsk",10289,49.63,117.32000000000001,6.7e2
"Russia","Omsk","Kormilovka",10283,55.,74.10000000000001,1.1e2
"Russia","Lipetsk","Zadonsk",10280,52.38,38.93,1.7e2
"Russia","Stavropol","Aleksandriyskaya",10279,44.230000000000004,43.35,2.6e2
"Russia","Ulyanovsk","Isheyevka",10276,54.42,48.27,1.3e2
"Russia","Krasnodar","Dvubratskiy",10272,45.24,39.800000000000004,74.
"Russia","MoskovskayaOblast","Novopodrezkovo",10271,55.94,37.34,1.8e2
"Russia","Chechnya","Assinovskaya",10270,43.24,45.18,2.8e2
"Russia","Kemerovo","Sheregesh",10267,52.95,88.03,8.1e2
"Russia","Sverdlovsk","Malysheva",10262,57.120000000000005,61.39,2.3e2
"Russia","Sakhalin","Shakhtyorsk",10261,49.17,142.13,53.
"Russia","Perm","Oktyabrskiy",10254,56.52,57.2,3.2e2
"Russia","Volgograd","Novonikolayevskiy",10251,50.980000000000004,42.36,1.5e2
"Russia","Chechnya","Alleroy",10247,43.21,46.28,3.4e2
"Russia","Kurgan","Vargashi",10243,55.36,65.83,1.4e2
"Russia","Kirov","Vakhrushi",10227,58.68,50.03,1.5e2
"Russia","Chelyabinsk","Verkhneuralsk",10220,53.88,59.21,4.1e2
"Russia","Stavropol","Lysogorskaya",10219,44.11,43.28,3.5e2
"Russia","Kalmykia","Gorodovikovsk",10215,46.14,41.97,76.
"Russia","Tambov","Inzhavino",10210,52.32,42.49,1.5e2
"Russia","Komi","Vuktyl",10205,63.86,57.31,1.1e2
"Russia","Rostov","Krivyanskaya",10203,47.4,40.17,4.
"Russia","Chelyabinsk","Oktyabrskiy",10198,55.08,61.800000000000004,1.9e2
"Russia","Chuvashia","MariinskiyPosad",10197,56.11,47.72,93.
"Russia","Bashkortostan","Tolbazy",10183,54.01,55.9,2.3e2
"Russia","Chechnya","StaryyeAtagi",10183,43.12,45.730000000000004,2.8e2
"Russia","Kaluga","Tarusa",10180,54.72,37.18,1.6e2
"Russia","Amur","Yekaterinoslavka",10178,50.370000000000005,129.11,2.3e2
"Russia","Chechnya","AlkhanKala",10168,43.26,45.54,1.7e2
"Russia","Novgorod","Pankovka",10168,58.5,31.220000000000002,21.
"Russia","Krasnodar","Sovetskaya",10166,44.78,41.17,2.9e2
"Russia","Novosibirsk","Moshkovo",10149,55.300000000000004,83.61,2.2e2
"Russia","Bryansk","BelyyeBerega",10146,53.21,34.67,1.8e2
"Russia","MoskovskayaOblast","Bolshevo",10133,55.93,37.85,1.6e2
"Russia","MoskovskayaOblast","Oktyabrskiy",10130,55.61,37.97,1.3e2
"Russia","Irkutsk","Zalari",10127,53.56,102.51,4.4e2
"Russia","Yakutia","Pokrovsk",10126,61.480000000000004,129.13,1.3e2
"Russia","Novosibirsk","Gornyy",10119,55.13,83.87,2.1e2
"Russia","Orenburg","Tyulgan",10105,52.34,56.160000000000004,3.1e2
"Russia","Chelyabinsk","Argayash",10096,55.49,60.88,2.5e2
"Russia","Vologda","Ustyuzhna",10085,58.85,36.43,1.1e2
"Russia","Saratov","Ozinki",10085,51.17,49.67,90.
"Russia","Tatarstan","Alekseyevskoye",10083,55.31,50.11,57.
"Russia","KhantyMansi","Novoagansk",10066,61.97,76.63,72.
"Russia","MoskovskayaOblast","Nekrasovskiy",10066,56.07,37.5,1.8e2
"Russia","Rostov","Sholokhovskiy",10062,48.27,41.13,1.e2
"Russia","Samara","BolshayaGlushitsa",10055,52.38,50.480000000000004,56.
"Russia","NizhnyNovgorod","Ardatov",10047,55.24,43.09,1.5e2
"Russia","Rostov","Gigant",10034,46.51,41.34,64.
"Russia","Kalmykia","Troitskoye",10025,46.42,44.26,74.
"Russia","Amur","Arkhara",10023,49.42,130.12,1.3e2
"Russia","Sverdlovsk","Mikhaylovsk",10020,56.44,59.11,2.5e2
"Russia","Amur","Skovorodino",10015,53.980000000000004,123.92,4.e2
"Russia","Lipetsk","Dobrinka",9998,52.17,40.47,1.5e2
"Russia","Ingushetia","Dolakovo",9994,43.230000000000004,44.6,5.e2
"Russia","Tyva","KaaKhem",9990,51.68,94.73,7.1e2
"Russia","Kirov","Urzhum",9981,57.11,49.99,1.e2
"Russia","Kemerovo","Malinovka",9981,53.4,87.28,2.8e2
"Russia","Yakutia","Nyurba",9981,63.28,118.33,1.2e2
"Russia","Smolensk","Dorogobuzh",9966,54.93,33.29,2.1e2
"Russia","MoskovskayaOblast","Pervomayskiy",9964,55.52,37.22,1.6e2
"Russia","Tver","ZapadnayaDvina",9962,56.26,32.08,1.9e2
"Russia","KhantyMansi","Solnechnyy",9954,50.583333333,137.033333333,"null"
"Russia","Yakutia","Vilyuysk",9949,63.76,121.62,1.2e2
"Russia","Tyumen","Bogandinskiy",9930,56.9,65.88,74.
"Russia","Sverdlovsk","Svobodnyy",9920,58.03,60.370000000000005,2.3e2
"Russia","Saratov","AleksandrovGay",9919,50.15,48.57,20.
"Russia","Krasnodar","Novomyshastovskaya",9916,45.2,38.58,11.
"Russia","Omsk","Moskalyonki",9910,54.95,71.93,1.2e2
"Russia","Chelyabinsk","Varna",9906,53.4,60.97,2.5e2
"Russia","Kurgan","Makushino",9901,55.21,67.24,1.3e2
"Russia","Orenburg","Ilek",9898,51.53,53.38,61.
"Russia","Omsk","Luzino",9897,54.95,73.03,1.1e2
"Russia","MariEl","Morki",9884,56.43,49.,1.1e2
"Russia","Chechnya","Sernovodskoye",9882,43.31,45.160000000000004,2.6e2
"Russia","Penza","Bessonovka",9880,53.31,45.04,1.3e2
"Russia","Astrakhan","Ikryanoye",9880,46.09,47.730000000000004,-22.
"Russia","Udmurtia","Kizner",9847,56.28,51.51,76.
"Russia","Tula","Leninskiy",9834,54.300000000000004,37.47,1.6e2
"Russia","MoskovskayaOblast","Kokoshkino",9807,55.6,37.17,1.9e2
"Russia","Ivanovo","Puchezh",9791,56.980000000000004,43.17,96.
"Russia","Bashkortostan","Mesyagutovo",9780,55.53,58.24,2.4e2
"Russia","Komi","Zheshart",9777,62.06,49.56,71.
"Russia","Sverdlovsk","Sosva",9775,59.18,61.84,82.
"Russia","Murmansk","Revda",9773,67.94,34.56,2.5e2
"Russia","Perm","Ugleuralskiy",9770,58.95,57.59,4.e2
"Russia","Kaluga","Yermolino",9769,55.22,36.6,1.8e2
"Russia","Volgograd","Serafimovich",9764,49.58,42.730000000000004,1.e2
"Russia","Orel","Naryshkino",9761,52.97,35.730000000000004,2.1e2
"Russia","Arkhangelsk","Oktyabrskiy",9758,61.08,43.25,1.2e2
"Russia","Tver","Maksatikha",9755,57.800000000000004,35.88,1.4e2
"Russia","KhabarovskKrai","ZavetyIlicha",9755,49.03,140.28,36.
"Russia","Bashkortostan","Buzdyak",9752,54.58,54.550000000000004,1.8e2
"Russia","Vladimir","Suzdal",9749,56.43,40.44,1.1e2
"Russia","Tomsk","Melnikovo",9745,56.550000000000004,84.08,89.
"Russia","Belgorod","Prokhorovka",9735,51.04,36.730000000000004,2.5e2
"Russia","Tatarstan","Aksubay",9733,54.84,50.78,1.3e2
"Russia","Primorski","Yaroslavskiy",9716,44.19,132.23,1.2e2
"Russia","Chechnya","Gekhi",9714,43.17,45.47,2.2e2
"Russia","Komi","Vylgort",9707,61.620000000000005,50.7,1.4e2
"Russia","Smolensk","Rudnya",9697,54.96,31.09,1.9e2
"Russia","Mordovia","Chaunza",9680,54.4,45.78,2.4e2
"Russia","Samara","Novosemeykino",9679,53.38,50.370000000000005,2.e2
"Russia","Saratov","Dergachi",9678,51.230000000000004,48.77,52.
"Russia","Orenburg","Perevolotskiy",9667,51.88,54.2,1.7e2
"Russia","Penza","Bashmakovo",9665,53.21,43.04,2.e2
"Russia","Mordovia","Romodanovo",9648,54.43,45.33,1.2e2
"Russia","Murmansk","Roslyakovo",9648,69.05,33.22,20.
"Russia","Astrakhan","Volodarskiy",9643,46.4,48.54,-24.
"Russia","Irkutsk","Biryusinsk",9642,55.96,97.81,3.1e2
"Russia","Chechnya","Znamenskoye",9641,43.68,45.13,91.
"Russia","Tatarstan","Aktyubinskiy",9634,54.82,52.78,2.9e2
"Russia","Tula","Lipki",9631,53.94,37.71,2.2e2
"Russia","Belgorod","Rovenki",9622,49.92,38.89,80.
"Russia","Karelia","Olonets",9614,60.980000000000004,32.97,25.
"Russia","Krasnodar","Plastunovskaya",9604,45.29,39.27,31.
"Russia","Chechnya","Shelkovskaya",9602,43.51,46.34,15.
"Russia","Zabaykalsky","Novokruchininskiy",9599,51.78,113.77,6.6e2
"Russia","Tyumen","Omutinskoye",9595,56.480000000000004,67.67,1.2e2
"Russia","Leningrad","Mga",9589,59.75,31.07,30.
"Russia","KabardinoBalkaria","Sarmakovo",9588,43.75,43.2,6.9e2
"Russia","Rostov","SokolovoKundryuchenskiy",9585,47.84,39.94,1.4e2
"Russia","Perm","Kujeda",9565,56.43,55.58,1.3e2
"Russia","MoskovskayaOblast","Bogorodskoye",9562,56.550000000000004,37.88,1.9e2
"Russia","Buryatia","Bichura",9559,50.59,107.60000000000001,6.5e2
"Russia","Mordovia","Krasnoslobodsk",9556,54.42,43.79,1.6e2
"Russia","Orenburg","Dombarovskiy",9556,50.76,59.54,2.6e2
"Russia","YamaloNenets","Urengoy",9554,65.97,78.42,15.
"Russia","Bryansk","Suzyomka",9547,52.32,34.07,1.6e2
"Russia","AltaiRepublic","Rodino",9537,52.5,80.25,1.6e2
"Russia","Bashkortostan","Bakaly",9532,55.18,53.800000000000004,1.2e2
"Russia","Rostov","Oblivskaya",9528,48.54,42.49,61.
"Russia","Chelyabinsk","Miasskoye",9524,55.28,61.9,1.5e2
"Russia","Kirov","Raduzhnyy",9514,59.480000000000004,49.65,1.8e2
"Russia","Primorski","Kirovskiy",9510,45.09,133.51,1.e2
"Russia","Pskov","Dno",9505,57.83,29.98,67.
"Russia","MoskovskayaOblast","Vatutinki",9502,55.5,37.33,1.6e2
"Russia","NizhnyNovgorod","Shatki",9466,55.19,44.13,1.3e2
"Russia","Mordovia","Ardatov",9458,54.870000000000005,46.230000000000004,85.
"Russia","Krasnoyarsk","Aban",9448,56.68,96.06,2.4e2
"Russia","AltaiRepublic","Smolenskoye",9431,52.33,85.08,1.8e2
"Russia","Leningrad","Kuzmolovskiy",9419,60.09,30.5,25.
"Russia","Krasnodar","Taman",9417,45.21,36.71,19.
"Russia","Krasnodar","Ivanovskaya",9415,45.32,38.660000000000004,11.
"Russia","NizhnyNovgorod","Vetluga",9394,57.86,45.78,1.2e2
"Russia","Ingushetia","VerkhniyeAchaluki",9393,43.35,44.7,4.7e2
"Russia","Zabaykalsky","Atamanovka",9382,51.93,113.63,6.4e2
"Russia","KabardinoBalkaria","Zalukokoazhe",9377,43.9,43.22,6.1e2
"Russia","Krasnodar","Vityazevo",9373,44.99,37.27,15.
"Russia","Chuvashia","Ibresi",9366,55.300000000000004,47.04,2.e2
"Russia","Leningrad","Ulyanovka",9365,59.63,30.77,43.
"Russia","Bashkortostan","Verkhneyarkeyevo",9357,55.45,54.32,97.
"Russia","Voronezh","Kamenka",9356,51.32,42.77,1.6e2
"Russia","Tula","Mendeleyevskiy",9350,54.15,37.58,2.3e2
"Russia","Zabaykalsky","Mogoytuy",9349,51.28,114.92,6.5e2
"Russia","Leningrad","Roshchino",9346,60.25,29.61,87.
"Russia","Smolensk","Pochinok",9337,54.4,32.45,2.e2
"Russia","Perm","Zvyozdnyy",9331,57.6,56.300000000000004,2.e2
"Russia","Krasnoyarsk","NizhnyayaPoyma",9324,56.160000000000004,97.19,2.7e2
"Russia","Zabaykalsky","Yasnogorsk",9324,50.93,115.55,6.8e2
"Russia","Stavropol","Grigoropolisskaya",9310,45.300000000000004,41.06,1.4e2
"Russia","Rostov","Veshenskaya",9303,49.63,41.72,70.
"Russia","AltaiRepublic","Topchikha",9301,52.82,83.12,2.e2
"Russia","Samara","Povolzhskiy",9296,53.58,49.77,1.6e2
"Russia","Rostov","Gornyatskiy",9292,48.29,40.89,52.
"Russia","Pskov","Novosokolniki",9286,56.34,30.150000000000002,1.4e2
"Russia","Chechnya","Germenchuk",9285,43.19,45.92,1.9e2
"Russia","AltaiRepublic","Mamontovo",9275,52.72,81.62,2.1e2
"Russia","Khakasia","Shira",9274,54.49,89.96000000000001,4.8e2
"Russia","Vladimir","Balakirevo",9268,56.5,38.85,2.1e2
"Russia","Yakutia","Olyokminsk",9266,60.38,120.2,1.5e2
"Russia","MoskovskayaOblast","Andreyevka",9261,55.99,37.13,2.2e2
"Russia","Ivanovo","Komsomolsk",9213,57.03,40.38,1.5e2
"Russia","Kemerovo","Salair",9209,54.22,85.78,3.1e2
"Russia","AltaiRepublic","Klyuchi",9205,52.27,79.17,1.4e2
"Russia","Chechnya","KatyrYurt",9202,43.17,45.37,2.3e2
"Russia","KhantyMansi","Igrim",9199,63.190000000000005,64.42,9.
"Russia","Mordovia","Torbeyevo",9194,54.07,43.25,2.e2
"Russia","Kemerovo","Tisul",9178,55.76,88.31,2.1e2
"Russia","Stavropol","Pokoynoye",9175,44.81,44.25,87.
"Russia","NizhnyNovgorod","Perevoz",9169,55.6,44.54,98.
"Russia","Tver","Staritsa",9166,56.51,34.93,1.7e2
"Russia","KhabarovskKrai","Nekrasovka",9159,48.35,135.23,80.
"Russia","Vladimir","Kosterevo",9153,55.93,39.62,1.2e2
"Russia","Krasnodar","Arkhangelskaya",9144,45.68,40.28,55.
"Russia","Leningrad","ImeniSverdlova",9138,59.78,30.67,15.
"Russia","Orenburg","Energetik",9136,51.75,58.800000000000004,2.6e2
"Russia","Kirov","Pervomayskiy",9121,58.68,50.160000000000004,1.7e2
"Russia","Samara","Borskoye",9119,53.03,51.72,60.
"Russia","Khakasia","Cheryomushki",9114,52.84,91.39,4.5e2
"Russia","MariEl","Sernur",9113,56.93,49.15,1.6e2
"Russia","YamaloNenets","Purpe",9099,64.48,76.69,49.
"Russia","Primorski","Mikhaylovka",9097,50.0667,43.2333,"null"
"Russia","Mordovia","Lukhovka",9084,54.15,45.230000000000004,1.7e2
"Russia","Krasnodar","Gostagaevskaya",9078,45.02,37.5,57.
"Russia","Dagestan","Pervomayskoye",9073,43.92,46.71,-12.
"Russia","Adygeya","Krasnogvardeyskoye",9071,45.14,39.58,34.
"Russia","Stavropol","Marinskaya",9065,43.88,43.49,4.3e2
"Russia","NizhnyNovgorod","Neklyudovo",9052,56.410000000000004,43.980000000000004,72.
"Russia","Perm","NovyyeLyady",9050,58.050000000000004,56.6,1.9e2
"Russia","Vladimir","KrasnayaGorbatka",9044,55.88,41.76,1.2e2
"Russia","Tver","Andreapol",9039,56.65,32.27,2.2e2
"Russia","Astrakhan","Liman",9039,45.79,47.230000000000004,-23.
"Russia","Tambov","Dmitriyevka",9035,52.88,40.79,1.4e2
"Russia","Kirov","Malmyzh",9030,56.52,50.69,78.
"Russia","Krasnodar","Trudobelikovskiy",9013,45.27,38.160000000000004,5.
"Russia","Novosibirsk","Krivodanovka",9006,55.09,82.65,97.
"Russia","Tula","Plekhanovo",9006,54.230000000000004,37.45,1.6e2
"Russia","MoskovskayaOblast","Bykovo",9005,55.63,38.050000000000004,1.3e2
"Russia","SaintPetersburg","Pontonnyy",9001,59.78,30.63,15.
"Russia","Tula","Dubovka",8992,53.95,38.07,2.2e2
"Russia","Tyva","Chadan",8991,51.28,91.58,8.2e2
"Russia","Orenburg","Svetlyy",8976,50.82,60.85,3.e2
"Russia","Amur","Novobureyskiy",8970,49.78,129.88,1.1e2
"Russia","Bashkortostan","Burayevo",8963,55.84,55.410000000000004,1.2e2
"Russia","Khakasia","BelyyYar",8951,53.6,91.39,2.6e2
"Russia","Rostov","Tarasovskiy",8949,48.730000000000004,40.36,78.
"Russia","Stavropol","Vinsady",8949,44.08,42.97,6.e2
"Russia","Rostov","Zavodskoy",8948,48.410000000000004,40.27,29.
"Russia","MoskovskayaOblast","SerebryanyePrudy",8939,54.46,38.72,1.4e2
"Russia","KhabarovskKrai","KnyazeVolkonskoye",8936,48.47,135.47,55.
"Russia","Krasnodar","Rodnikovskaya",8925,44.76,40.67,2.2e2
"Russia","Dagestan","Aksay",8924,43.37,46.45,33.
"Russia","Krasnoyarsk","Yermakovskoye",8910,53.28,92.39,3.1e2
"Russia","Primorski","Sibirtsevo",8904,44.26,132.44,88.
"Russia","Primorski","Preobrazheniye",8902,42.910000000000004,133.9,32.
"Russia","Chechnya","AlkhanYurt",8879,43.230000000000004,45.57,1.7e2
"Russia","Stavropol","Zolskaya",8865,43.910000000000004,43.300000000000004,5.3e2
"Russia","NizhnyNovgorod","Sosnovskoye",8862,55.800000000000004,43.160000000000004,1.6e2
"Russia","AltaiRepublic","Rebrikha",8858,53.08,82.33,2.2e2
"Russia","Irkutsk","Meget",8836,52.42,104.05,4.3e2
"Russia","Yakutia","Tommot",8829,58.97,126.28,2.7e2
"Russia","MoskovskayaOblast","Mamontovka",8817,55.980000000000004,37.82,1.6e2
"Russia","Rostov","Vesyolyy",8807,47.17,38.75,20.
"Russia","Krasnodar","Fastovetskaya",8806,45.92,40.160000000000004,44.
"Russia","Leningrad","NovoyeDevyatkino",8802,60.050000000000004,30.47,23.
"Russia","Yakutia","Zhatay",8801,62.160000000000004,129.83,91.
"Russia","Penza","Belinskiy",8798,52.96,43.410000000000004,1.7e2
"Russia","Tambov","Znamenka",8785,52.39,41.5,1.3e2
"Russia","Krasnodar","Novovelichkovskaya",8774,45.27,38.84,18.
"Russia","Ulyanovsk","Kuzovatovo",8765,53.54,47.67,2.4e2
"Russia","Mordovia","Insar",8761,53.870000000000005,44.37,1.5e2
"Russia","Chechnya","NovyyeAtagi",8760,43.13,45.78,2.7e2
"Russia","Lipetsk","LevTolstoy",8755,53.21,39.45,2.1e2
"Russia","MoskovskayaOblast","Lesnoy",8753,56.07,37.92,1.8e2
"Russia","Belgorod","Severnyy",8745,50.6,36.58,1.2e2
"Russia","Yakutia","UstNera",8736,64.57000000000001,143.20000000000002,4.9e2
"Russia","Dagestan","Mamedkala",8728,42.17,48.120000000000005,24.
"Russia","Kamchatka","Milkovo",8726,54.72,158.62,1.7e2
"Russia","Stavropol","Novoselitskoye",8723,44.75,43.44,1.8e2
"Russia","Chelyabinsk","Potanino",8717,55.18,61.620000000000005,2.1e2
"Russia","Pskov","StrugiKrasnyye",8711,58.27,29.13,1.2e2
"Russia","Dagestan","Komsomolskoye",8710,43.2,46.9,56.
"Russia","Stavropol","Yutsa",8702,43.96,43.01,6.9e2
"Russia","MoskovskayaOblast","Razvilka",8701,55.59,37.75,1.7e2
"Russia","Krasnoyarsk","Kozulka",8688,56.160000000000004,91.38,3.1e2
"Russia","Kurgan","Kargapolye",8665,55.95,64.4,71.
"Russia","Sverdlovsk","Yelanskiy",8653,56.82,62.5,89.
"Russia","Krasnodar","Nizhnebakanskaya",8648,44.87,37.83,94.
"Russia","Novosibirsk","Chany",8641,55.31,76.75,1.1e2
"Russia","Yakutia","Suntar",8639,62.160000000000004,117.63,1.3e2
"Russia","Belgorod","Proletarskiy",8629,50.79,35.77,2.1e2
"Russia","Perm","Uralskiy",8592,57.94,55.56,85.
"Russia","Krasnodar","Temirgoyevskaya",8588,45.11,40.28,89.
"Russia","Saratov","Samoylovka",8584,51.18,43.7,1.3e2
"Russia","Vologda","Nikolsk",8578,59.5,45.45,1.5e2
"Russia","Tomsk","Kargasok",8572,59.06,80.86,55.
"Russia","Tatarstan","Bolgar",8571,54.94,49.06,79.
"Russia","Chechnya","Naurskaya",8550,43.65,45.31,79.
"Russia","NorthOssetia","Chermen",8550,43.15,44.71,5.7e2
"Russia","NorthOssetia","Kizlyar",8544,43.7,44.6,1.6e2
"Russia","Ivanovo","Novotalitsy",8543,57.02,40.87,1.3e2
"Russia","Krasnodar","Pereyaslovskaya",8542,45.84,39.03,15.
"Russia","Omsk","Sargatskoye",8530,55.620000000000005,73.5,82.
"Russia","Kaluga","Belousovo",8529,55.09,36.68,1.8e2
"Russia","Kurgan","Mishkino",8528,55.34,63.92,1.5e2
"Russia","Astrakhan","VerkhniyBaskunchak",8521,48.230000000000004,46.72,31.
"Russia","Krasnodar","Rayevskaya",8518,44.83,37.550000000000004,1.4e2
"Russia","Komi","Yarega",8491,63.43,53.56,1.6e2
"Russia","Krasnoyarsk","Taseyevo",8479,57.22,94.9,1.4e2
"Russia","Penza","Pachelma",8472,53.24,43.35,2.e2
"Russia","Krasnoyarsk","NizhniyIngash",8458,56.2,96.53,2.5e2
"Russia","Rostov","Koksovyy",8458,48.2,40.6,1.3e2
"Russia","Tomsk","Togur",8442,58.36,82.83,60.
"Russia","Komi","Krasnozatonskiy",8438,61.660000000000004,50.88,99.
"Russia","Krasnodar","Rogovskaya",8435,45.730000000000004,38.74,11.
"Russia","Stavropol","Nadezhda",8426,44.1,44.6,1.6e2
"Russia","Vologda","Molochnoye",8421,59.28,39.68,1.2e2
"Russia","Leningrad","NovayaLadoga",8413,60.1,32.31,12.
"Russia","Bryansk","Dubrovka",8412,53.7,33.51,1.9e2
"Russia","Tomsk","BelyyYar",8412,58.44,85.06,82.
"Russia","Penza","Kolyshley",8410,52.7,44.53,2.1e2
"Russia","Perm","Suksun",8409,57.15,57.39,1.7e2
"Russia","Karelia","Lakhdenpokhya",8406,61.52,30.18,29.
"Russia","Sverdlovsk","Lobva",8403,59.19,60.49,89.
"Russia","Bashkortostan","Mrakovo",8394,52.72,56.620000000000005,2.4e2
"Russia","Chelyabinsk","Mezhozyornyy",8385,54.15,59.370000000000005,5.2e2
"Russia","KhantyMansi","Vysokiy",8372,44.7856,40.9106,"null"
"Russia","Primorski","Tavrichanka",8352,43.34,131.86,12.
"Russia","Komi","TroitskoPechorsk",8330,62.7,56.2,1.e2
"Russia","Ryazan","SpasskRyazanskiy",8317,54.410000000000004,40.38,1.1e2
"Russia","Chechnya","Kalinovskaya",8305,43.58,45.52,68.
"Russia","Volgograd","Bykovo",8293,49.77,45.38,32.
"Russia","Rostov","StarayaStanitsa",8284,48.35,40.28,27.
"Russia","Kirov","Murygino",8282,58.74,49.46,1.1e2
"Russia","Perm","Barda",8279,56.93,55.58,1.3e2
"Russia","Penza","SrednyayaYelyuzan",8279,53.03,45.95,2.4e2
"Russia","Voronezh","VerkhniyMamon",8278,50.17,40.410000000000004,80.
"Russia","Mordovia","Lyambir",8274,54.28,45.12,1.8e2
"Russia","MoskovskayaOblast","Ilyinskiy",8270,55.620000000000005,38.1,1.3e2
"Russia","Primorski","Novoshakhtinskiy",8269,43.93,132.,30.
"Russia","Smolensk","Demidov",8266,55.27,31.51,1.6e2
"Russia","Penza","Gorodishche",8253,53.27,45.7,2.e2
"Russia","Zabaykalsky","Kokuy",8253,52.21,117.55,4.6e2
"Russia","Mordovia","Temnikov",8252,54.63,43.21,1.2e2
"Russia","Sakhalin","Tymovskoye",8252,50.85,142.66,1.e2
"Russia","KabardinoBalkaria","Argudan",8250,43.42,43.92,3.6e2
"Russia","Dagestan","Chontaul",8241,43.300000000000004,46.86,7.
"Russia","NizhnyNovgorod","Ilinogorsk",8236,56.230000000000004,42.99,81.
"Russia","Samara","Sergiyevsk",8218,53.94,51.15,48.
"Russia","Penza","Lunino",8214,53.59,45.230000000000004,1.3e2
"Russia","Dagestan","Shamkhal",8208,43.06,47.33,6.
"Russia","Kemerovo","Yagunovskiy",8199,55.29,85.98,1.5e2
"Russia","Tyumen","Abatskoye",8195,56.29,70.46000000000001,74.
"Russia","Tver","Vesyegonsk",8185,58.67,37.27,1.e2
"Russia","Novgorod","Parfino",8177,57.97,31.650000000000002,27.
"Russia","Krasnodar","Chernomorskiy",8172,44.85,38.49,75.
