"Country","State","City","Population","Latitude","Longitude","Elevation"
"Russia","Moscow","Moscow",13010112,55.75,37.62,126.
"Russia","City of St. Petersburg","Saint Petersburg",4879566,59.93,30.32,13.
"Russia","Novosibirsk","Novosibirsk",1602915,55.04,82.93,159.
"Russia","Sverdlovsk","Yekaterinburg",1343839,56.85,60.6,245.
"Russia","Nizhegorod","Nizhny Novgorod",1266871,56.33,44.,95.
"Russia","Tatarstan","Kazan",1243500,55.75,49.13,56.
"Russia","Omsk","Omsk",1178391,55.,73.4,80.
"Russia","Samara","Samara",1170910,53.2,50.15,101.
"Russia","Rostov","Rostov‐na‐Donu",1119875,47.24,39.71,71.
"Russia","Bashkortostan","Ufa",1110976,54.78,56.04,179.
"Russia","Chelyabinsk","Chelyabinsk",1095909,55.15,61.43,223.
"Russia","Voronezh","Voronezh",1032382,51.72,39.26,95.
"Russia","Volgograd","Volgograd",1016137,48.71,44.480000000000004,46.
"Russia","Perm'","Perm",986497,58.,56.25,162.
"Russia","Krasnoyarsk","Krasnoyarsk",962466,56.02,93.06,153.
"Russia","Saratov","Saratov",843460,51.57,46.03,133.
"Russia","Samara","Tolyatti",721752,53.480000000000004,49.51,51.
"Russia","Krasnodar","Krasnodar",713426,45.03,38.980000000000004,27.
"Russia","Udmurt","Izhevsk",646277,56.85,53.230000000000004,148.
"Russia","Altay","Barnaul",635585,53.36,83.75,172.
"Russia","Ul'yanovsk","Ulyanovsk",624518,54.33,48.4,178.
"Russia","Yaroslavl'","Yaroslavl",608079,57.620000000000005,39.87,95.
"Russia","Dagestan","Makhachkala",592976,42.980000000000004,47.5,7.
"Russia","Primor'ye","Vladivostok",583673,43.13,131.9,55.
"Russia","Irkutsk","Irkutsk",578073,52.33,104.24000000000001,427.
"Russia","Khabarovsk","Khabarovsk",578060,48.42,135.12,56.
"Russia","Kemerovo","Novokuznetsk",562402,53.75,87.10000000000001,239.
"Russia","Kemerovo","Kemerovo",553076,55.33,86.08,129.
"Russia","Tyumen'","Tyumen",542463,57.15,65.53,80.
"Russia","Ryazan'","Ryazan",537622,54.620000000000005,39.74,118.
"Russia","Orenburg","Orenburg",533872,51.78,55.1,103.
"Russia","Yaroslavl'","Orenberg",525637,51.783333,55.1,137.
"Russia","Penza","Penza",509997,53.2,45.,176.
"Russia","Tula","Tula",509010,54.2,37.61,159.
"Russia","Tatarstan","Naberezhnye Chelny",507180,55.69,52.32,66.
"Russia","Lipetsk","Lipetsk",502821,52.620000000000005,39.62,123.
"Russia","Astrakhan'","Astrakhan",498953,46.35,48.050000000000004,-18.
"Russia","Tomsk","Tomsk",489879,56.5,84.97,114.
"Russia","Kirov","Kirov",468459,58.6,49.660000000000004,171.
"Russia","Kaliningrad","Kaliningrad",459560,54.71,20.5,-6.
"Russia","Kursk","Kursk",449063,51.730000000000004,36.19,179.
"Russia","Chuvash","Cheboksary",442387,56.13,47.25,123.
"Russia","Bryansk","Bryansk",419967,53.26,34.42,148.
"Russia","Chelyabinsk","Magnitogorsk",413208,53.42,58.97,391.
"Russia","Ivanovo","Ivanovo",413068,57.01,40.99,120.
"Russia","Tver'","Tver",405618,56.86,35.89,130.
"Russia","Sverdlovsk","Nizhniy Tagil",379724,57.92,59.97,200.
"Russia","Stavropol'","Stavropol",358399,45.04,41.97,573.
"Russia","Vladimir","Vladimir",354827,56.14,40.4,146.
"Russia","Arkhangel'sk","Arkhangelsk",349772,64.57000000000001,40.53,1.
"Russia","Buryat","Ulan‐Ude",347819,51.83,107.62,528.
"Russia","Belgorod","Belgorod",344242,50.61,36.59,156.
"Russia","Kurgan","Kurgan",329981,55.45,65.33,74.
"Russia","Krasnodar","Sochi",329481,43.6,39.730000000000004,14.
"Russia","Kaluga","Kaluga",329064,54.54,36.27,203.
"Russia","Orel","Oryol",325945,52.97,36.08,153.
"Russia","Vologda","Cherepovets",318856,59.13,37.9,141.
"Russia","Smolensk","Smolensk",317915,54.78,32.04,236.
"Russia","North Ossetia","Vladikavkaz",314073,43.04,44.68,682.
"Russia","Volgograd","Volzhskiy",308490,48.79,44.77,23.
"Russia","Chita","Chita",306239,52.050000000000004,113.46000000000001,647.
"Russia","Murmansk","Murmansk",298096,68.96000000000001,33.08,36.
"Russia","Mordovia","Saransk",297077,54.18,45.18,147.
"Russia","Khanty‐Mansiy","Surgut",290598,61.25,73.42,37.
"Russia","Tambov","Tambov",290365,52.730000000000004,41.43,133.
"Russia","Vologda","Vologda",287001,59.22,39.9,118.
"Russia","Bashkortostan","Sterlitamak",280233,53.63,55.95,153.
"Russia","Kostroma","Kostroma",277648,57.77,40.93,109.
"Russia","Kabardin‐Balkar","Nalchik",271447,43.5,43.62,466.
"Russia","Mariy‐El","Yoshkar‐Ola",266675,56.64,47.870000000000005,104.
"Russia","Karelia","Petrozavodsk",265072,61.82,34.33,23.
"Russia","Irkutsk","Bratsk",254878,56.300000000000004,101.71000000000001,432.
"Russia","Rostov","Taganrog",250287,47.22,38.910000000000004,25.
"Russia","Khabarovsk","Komsomolsk‐na‐Amure",248254,50.56,137.,32.
"Russia","Rostov","Shakhty",247736,47.71,40.21,100.
"Russia","Orenburg","Orsk",247002,51.21,58.63,206.
"Russia","Khanty‐Mansiy","Nizhnevartovsk",240834,60.93,76.57000000000001,45.
"Russia","Sakha","Yakutsk",239225,62.03,129.73,133.
"Russia","Tatarstan","Nizhnekamsk",237250,55.64,51.82,124.
"Russia","Nizhegorod","Dzerzhinsk",231797,56.24,43.46,90.
"Russia","Krasnodar","Novorossiysk",230702,44.72,37.77,15.
"Russia","Komi","Syktyvkar",229305,61.67,50.81,154.
"Russia","Moscow","Zelenograd",228294,55.94,37.29,174.
"Russia","Irkutsk","Angarsk",226374,52.57,103.91,426.
"Russia","Novgorod","Velikiy Novgorod",222594,58.52,31.28,24.
"Russia","Chechnya","Groznyy",218193,43.31,45.7,126.
"Russia","Belgorod","Staryy Oskol",218189,51.300000000000004,37.84,156.
"Russia","Krasnoyarsk","Norilsk",213153,69.34,88.22,114.
"Russia","Amur","Blagoveshchensk",212183,50.27,127.53,132.
"Russia","Altay","Biysk",203108,52.53,85.17,183.
"Russia","Saratov","Balakovo",199187,52.03,47.78,28.
"Russia","Pskov","Pskov",197047,57.83,28.330000000000002,45.
"Russia","Kemerovo","Prokopyevsk",196406,53.9,86.71000000000001,314.
"Russia","Saratov","Engels",194824,51.5,46.12,16.
"Russia","Krasnodar","Armavir",190703,44.99,41.12,202.
"Russia","Moskovskaya Oblast","Lyubertsy",190480,55.67,37.89,133.
"Russia","Yaroslavl'","Rybinsk",190429,58.050000000000004,38.83,102.
"Russia","Chelyabinsk","Zlatoust",190340,55.17,59.65,520.
"Russia","Arkhangel'sk","Severodvinsk",183996,64.57000000000001,39.83,8.
"Russia","Moskovskaya Oblast","Balashikha",182772,55.800000000000004,37.95,146.
"Russia","Sverdlovsk","Kamensk‐Uralskiy",182466,56.410000000000004,61.93,153.
"Russia","Khakass","Abakan",181709,53.72,91.43,246.
"Russia","Kamchatka","Petropavlovsk‐Kamchatskiy",180454,53.02,158.65,30.
"Russia","Moskovskaya Oblast","Khimki",180075,55.89,37.44,177.
"Russia","Moskovskaya Oblast","Podolsk",179525,55.42,37.54,164.
"Russia","Rostov","Novocherkassk",179461,47.42,40.09,88.
"Russia","Sakhalin","Yuzhno‐Sakhalinsk",173364,46.95,142.74,39.
"Russia","Samara","Syzran",173260,53.17,48.47,59.
"Russia","Moskovskaya Oblast","Korolyov",172781,55.92,37.82,162.
"Russia","Primor'ye","Nakhodka",171666,42.83,132.89000000000001,17.
"Russia","Rostov","Volgodonsk",170832,47.51,42.15,51.
"Russia","Moskovskaya Oblast","Mytishchi",161811,55.910000000000004,37.730000000000004,150.
"Russia","Gorno‐Altay","Rubtsovsk",158584,51.53,81.2,217.
"Russia","Adygey","Maykop",156768,44.61,40.11,225.
"Russia","Primor'ye","Ussuriysk",154755,43.800000000000004,132.01,21.
"Russia","Chelyabinsk","Miass",154519,55.,60.09,331.
"Russia","Tatarstan","Almetyevsk",154262,54.9,52.31,137.
"Russia","Bashkortostan","Salavat",153181,53.370000000000005,55.92,148.
"Russia","Moskovskaya Oblast","Kolomna",148020,55.08,38.78,142.
"Russia","Moskovskaya Oblast","Elektrostal",146189,55.79,38.44,156.
"Russia","Stavropol'","Pyatigorsk",145971,44.050000000000004,43.06,537.
"Russia","Perm'","Berezniki",145115,59.410000000000004,56.77,111.
"Russia","City of St. Petersburg","Kolpino",144901,59.75,30.6,17.
"Russia","Vladimir","Kovrov",138552,56.36,41.32,129.
"Russia","Chelyabinsk","Kopeysk",137813,55.11,61.65,203.
"Russia","Ingush","Nazran",136991,43.21,44.800000000000004,533.
"Russia","Sverdlovsk","Pervouralsk",132881,56.910000000000004,59.95,351.
"Russia","Moskovskaya Oblast","Odintsovo",131762,55.67,37.29,186.
"Russia","Stavropol'","Kislovodsk",129861,43.910000000000004,42.72,840.
"Russia","Dagestan","Khasavyurt",128381,43.25,46.59,136.
"Russia","Tula","Novomoskovsk",125647,54.09,38.22,215.
"Russia","Chuvash","Novocheboksarsk",125472,56.120000000000005,47.5,96.
"Russia","Moskovskaya Oblast","Serpukhov",125010,54.92,37.410000000000004,147.
"Russia","Rostov","Bataysk",124705,47.14,39.75,7.
"Russia","Dagestan","Derbent",123008,42.06,48.29,26.
"Russia","Vladimir","Murom",122123,55.57,42.04,115.
"Russia","Moskovskaya Oblast","Orekhovo‐Zuevo",122117,55.82,38.980000000000004,119.
"Russia","Bashkortostan","Neftekamsk",118740,56.08,54.27,89.
"Russia","Stavropol'","Nevinnomyssk",117676,44.63,41.95,329.
"Russia","Volgograd","Kamyshin",117297,50.1,45.4,13.
"Russia","Karachay‐Cherkess","Cherkessk",116947,44.29,42.06,485.
"Russia","Moskovskaya Oblast","Zheleznodorozhnyy",116456,55.75,38.0167,"null"
"Russia","Moskovskaya Oblast","Noginsk",116277,55.85,38.44,155.
"Russia","Ul'yanovsk","Dimitrovgrad",116055,54.25,49.550000000000004,132.
"Russia","Tuva","Kyzyl",116015,51.71,94.38,613.
"Russia","Rostov","Novoshakhtinsk",115266,47.75,39.94,107.
"Russia","Bashkortostan","Oktyabrskiy",113929,54.47,53.46,141.
"Russia","Kaluga","Obninsk",113639,55.1,36.61,175.
"Russia","Dagestan","Kaspiysk",113348,42.88,47.64,-16.
"Russia","Khanty‐Mansiy","Nefteyugansk",112975,61.08,72.7,33.
"Russia","Moskovskaya Oblast","Shchyolkovo",112860,55.9,38.02,153.
"Russia","Moskovskaya Oblast","Sergiyev Posad",112700,56.32,38.13,216.
"Russia","Yamal‐Nenets","Novyy Urengoy",112505,66.09,76.51,53.
"Russia","Yamal‐Nenets","Noyabrsk",108450,63.17,75.62,128.
"Russia","Kemerovo","Leninsk‐Kuznetskiy",107858,54.660000000000004,86.16,221.
"Russia","Tomsk","Seversk",107552,56.61,84.83,88.
"Russia","Krasnoyarsk","Achinsk",105364,56.28,90.5,191.
"Russia","Lipetsk","Yelets",105016,52.6,38.51,121.
"Russia","Nizhegorod","Arzamas",104785,55.38,43.82,118.
"Russia","Orenburg","Novotroitsk",103927,51.21,58.32,209.
"Russia","Samara","Novokuybyshevsk",103908,53.11,49.93,89.
"Russia","Kalmyk","Elista",103034,46.32,44.21,124.
"Russia","Primor'ye","Artyom",102603,43.36,132.18,53.
"Russia","Pskov","Velikie Luki",102357,56.34,30.53,99.
"Russia","Moskovskaya Oblast","Zhukovskiy",101271,55.550000000000004,38.25,117.
"Russia","Tyumen'","Tobolsk",100583,58.2,68.27,95.
"Russia","Maga Buryatdan","Magadan",100020,59.57,150.8,61.
"Russia","Udmurt","Sarapul",99906,56.47,53.800000000000004,108.
"Russia","Tatarstan","Zelenodolsk",99216,55.84,48.660000000000004,55.
"Russia","Moskovskaya Oblast","Krasnogorsk",98822,55.83,37.33,170.
"Russia","Udmurt","Votkinsk",98063,57.04,53.99,81.
"Russia","Sverdlovsk","Serov",98044,59.61,60.58,132.
"Russia","Kemerovo","Mezhdurechensk",97895,53.69,88.06,242.
"Russia","Komi","Ukhta",97806,63.56,53.69,89.
"Russia","Moskovskaya Oblast","Pushkino",96938,56.,37.83,153.
"Russia","Kursk","Zheleznogorsk",96436,52.35,35.410000000000004,224.
"Russia","Rostov","Kamensk‐Shakhtinskiy",95742,48.32,40.26,57.
"Russia","Saratov","Balashov",94986,51.550000000000004,43.17,146.
"Russia","Perm'","Solikamsk",94628,59.64,56.75,144.
"Russia","Sverdlovsk","Novouralsk",94350,57.25,60.08,301.
"Russia","Tambov","Michurinsk",93690,52.9,40.5,148.
"Russia","Udmurt","Glazov",93628,58.14,52.660000000000004,150.
"Russia","Novosibirsk","Berdsk",91857,54.76,83.08,132.
"Russia","Kemerovo","Kiselyovsk",90980,53.980000000000004,86.65,317.
"Russia","Moskovskaya Oblast","Voskresensk",90888,55.31,38.7,126.
"Russia","Krasnoyarsk","Kansk",90231,56.2,95.71000000000001,201.
"Russia","Penza","Kuznetsk",89541,53.120000000000005,46.6,232.
"Russia","Leningrad","Gatchina",88842,59.57,30.13,96.
"Russia","Nizhegorod","Sarov",87755,55.38,43.83,120.
"Russia","Orenburg","Buzuluk",87680,52.78,52.26,71.
"Russia","Chelyabinsk","Ozyorsk",87541,55.76,60.7,242.
"Russia","Kirov","Kirovo‐Chepetsk",87182,58.550000000000004,50.04,171.
"Russia","Krasnodar","Yeysk",87064,46.7,38.27,16.
"Russia","Belgorod","Gubkin",86180,51.28,37.39,171.
"Russia","Tatarstan","Bugulma",86085,54.550000000000004,52.800000000000004,295.
"Russia","Krasnoyarsk","Zheleznogorsk",84860,56.25,93.53,146.
"Russia","Perm'","Chaykovskiy",84105,56.78,54.15,106.
"Russia","Ivanovo","Kineshma",83871,57.44,42.13,102.
"Russia","Kemerovo","Anzhero‐Sudzhensk",83861,56.08,86.04,225.
"Russia","Kemerovo","Yurga",83466,55.72,84.89,163.
"Russia","Chelyabinsk","Troitsk",82676,54.1,61.57,172.
"Russia","Rostov","Azov",82591,47.11,39.410000000000004,41.
"Russia","Irkutsk","Ust‐Ilimsk",82455,58.,102.66,298.
"Russia","Moskovskaya Oblast","Klin",82419,56.34,36.7,152.
"Russia","City of St. Petersburg","Pushkin",82416,59.72,30.42,44.
"Russia","Moskovskaya Oblast","Ramenskoye",81003,55.49,38.35,109.
"Russia","Stavropol'","Yessentuki",80989,44.04,42.85,617.
"Russia","Moskovskaya Oblast","Reutov",80036,55.76,37.86,164.
"Russia","Leningrad","Vyborg",79962,60.7,28.75,11.
"Russia","Krasnodar","Kropotkin",79844,45.44,40.58,81.
"Russia","Kurgan","Shadrinsk",79519,56.08,63.64,79.
"Russia","Komi","Vorkuta",79205,67.5,64.,166.
"Russia","Moskovskaya Oblast","Dolgoprudnyy",78415,55.93,37.51,189.
"Russia","Irkutsk","Usolye‐Sibirskoye",77989,52.76,103.63,450.
"Russia","Kemerovo","Belovo",77940,54.42,86.3,209.
"Russia","Nizhegorod","Bor",77679,56.35,44.09,81.
"Russia","Stavropol'","Mineralnyye Vody",75811,44.21,43.13,314.
"Russia","Yevrey","Birobidzhan",75192,48.800000000000004,132.95,78.
"Russia","Altay","Novoaltaysk",73889,53.4,83.96000000000001,142.
"Russia","Khakass","Chernogorsk",73187,53.83,91.22,336.
"Russia","Moskovskaya Oblast","Chekhov",73117,55.15,37.480000000000004,175.
"Russia","Samara","Chapaevsk",72948,52.980000000000004,49.72,48.
"Russia","Sverdlovsk","Asbest",72822,57.02,61.46,212.
"Russia","Moskovskaya Oblast","Naro‐Fominsk",70677,55.39,36.74,163.
"Russia","Tatarstan","Yelabuga",69720,55.76,52.07,61.
"Russia","Bashkortostan","Beloretsk",69695,53.97,58.4,505.
"Russia","Perm'","Lysva",69689,58.11,57.79,153.
"Russia","Stavropol'","Georgievsk",69379,44.15,43.47,292.
"Russia","Krasnoyarsk","Krasnoyarsk‐45",69020,56.11,94.59,172.
"Russia","Bashkortostan","Ishimbay",68914,53.46,56.04,159.
"Russia","Rostov","Gukovo",68619,48.06,39.94,267.
"Russia","Bashkortostan","Tuymazy",68340,54.6,53.7,124.
"Russia","Amur","Belogorsk",67748,50.92,128.47,167.
"Russia","Moskovskaya Oblast","Stupino",67499,54.9,38.07,181.
"Russia","Moskovskaya Oblast","Yegoryyevsk",67014,55.38,39.03,142.
"Russia","Ingush","Ordzhonikidzevskaya",67000,43.32,45.04,334.
"Russia","Leningrad","Sosnovyy Bor",66603,59.9,29.12,13.
"Russia","Krasnoyarsk","Minusinsk",66402,53.71,91.69,246.
"Russia","Moskovskaya Oblast","Lobnya",66342,56.01,37.480000000000004,193.
"Russia","Tula","Aleksin",66308,54.52,37.09,160.
"Russia","Perm'","Kungur",66157,57.43,56.95,132.
"Russia","Sverdlovsk","Polevskoy",65911,56.44,60.19,375.
"Russia","Bryansk","Klintsy",65667,52.76,32.230000000000004,163.
"Russia","Nizhegorod","Kstovo",65657,56.14,44.19,133.
"Russia","Tatarstan","Leninogorsk",65513,54.6,52.45,261.
"Russia","Sakha","Neryungri",65412,56.67,124.71000000000001,804.
"Russia","Stavropol'","Budyonnovsk",65384,44.79,44.14,129.
"Russia","Tyumen'","Ishim",64775,56.15,69.45,89.
"Russia","Krasnoyarsk","Lesosibirsk",64625,58.24,92.48,80.
"Russia","Dagestan","Buynaksk",64554,42.83,47.12,446.
"Russia","Saratov","Volsk",64315,52.03,47.38,26.
"Russia","Krasnodar","Slavyansk‐na‐Kubani",64174,45.25,38.12,6.
"Russia","Novosibirsk","Iskitim",63771,54.64,83.29,117.
"Russia","Krasnodar","Tikhoretsk",63573,45.85,40.13,81.
"Russia","Krasnodar","Tuapse",63452,44.11,39.07,51.
"Russia","Bashkortostan","Kumertau",63302,52.77,55.78,282.
"Russia","Voronezh","Borisoglebsk",63131,51.370000000000005,42.09,106.
"Russia","Bashkortostan","Sibay",62930,52.7,58.65,290.
"Russia","Murmansk","Apatity",62929,67.57000000000001,33.39,177.
"Russia","Gorno‐Altay","Gorno‐Altaysk",62861,51.96,85.96000000000001,321.
"Russia","Sverdlovsk","Krasnoturinsk",62578,59.79,60.480000000000004,117.
"Russia","Nizhegorod","Pavlovo",62452,55.96,43.09,93.
"Russia","Penza","Zarechnyy",62174,53.13,46.58,227.
"Russia","Voronezh","Rossosh",62083,51.14,38.51,138.
"Russia","City of St. Petersburg","Petrodvorets",61973,59.89,29.900000000000002,14.
"Russia","Sverdlovsk","Revda",61916,56.81,59.93,321.
"Russia","Arkhangel'sk","Kotlas",61902,61.26,46.660000000000004,75.
"Russia","Tatarstan","Chistopol",61742,55.36,50.64,112.
"Russia","Moskovskaya Oblast","Dubna",61699,56.75,37.15,115.
"Russia","Leningrad","Tikhvin",61681,59.64,33.51,45.
"Russia","Tver'","Rzhev",61603,56.26,34.33,185.
"Russia","Amur","Svobodnyy",61597,51.4,128.13,191.
"Russia","Vladimir","Aleksandrov",61551,56.4,38.72,179.
"Russia","Moskovskaya Oblast","Dmitrov",61390,56.35,37.52,138.
"Russia","Moskovskaya Oblast","Pavlovskiy Posad",61293,55.78,38.65,128.
"Russia","Bashkortostan","Belebey",61146,54.120000000000005,54.120000000000005,293.
"Russia","Krasnodar","Labinsk",61120,44.63,40.74,273.
"Russia","Rostov","Salsk",60955,46.47,41.54,39.
"Russia","Kabardin‐Balkar","Prokhladnyy",60597,43.76,44.01,204.
"Russia","Tula","Shchyokino",60351,54.01,37.51,248.
"Russia","Ivanovo","Shuya",60026,56.85,41.36,89.
"Russia","Stavropol'","Mikhaylovsk",59992,45.14,42.,465.
"Russia","Primor'ye","Arsenyev",59749,44.160000000000004,133.28,175.
"Russia","Khanty‐Mansiy","Khanty‐Mansiysk",59593,61.,69.,95.
"Russia","Volgograd","Mikhaylovka",59299,50.06,43.22,77.
"Russia","Bashkortostan","Meleuz",58536,52.97,55.92,179.
"Russia","Khanty‐Mansiy","Kogalym",57752,62.03,74.5,78.
"Russia","Sverdlovsk","Verkhnyaya Pyshma",57718,56.97,60.58,273.
"Russia","Moskovskaya Oblast","Solnechnogorsk",57506,56.18,36.980000000000004,201.
"Russia","Tula","Uzlovaya",57448,53.980000000000004,38.17,225.
"Russia","Novgorod","Borovichi",57238,58.4,33.9,76.
"Russia","Kabardin‐Balkar","Baksan",57037,43.69,43.54,452.
"Russia","Nizhegorod","Vyksa",56529,55.32,42.17,109.
"Russia","Krasnodar","Krymsk",56203,44.92,37.980000000000004,26.
"Russia","Samara","Zhigulyovsk",56066,53.42,49.5,189.
"Russia","Vladimir","Gus‐Khrustalnyy",55973,55.620000000000005,40.67,125.
"Russia","Smolensk","Roslavl",55894,53.95,32.86,197.
"Russia","Chita","Krasnokamensk",55822,50.050000000000004,118.02,640.
"Russia","Moskovskaya Oblast","Klimovsk",55346,55.36,37.53,177.
"Russia","Leningrad","Kirishi",55167,59.46,32.02,35.
"Russia","Khanty‐Mansiy","Nyagan",54735,62.14,65.39,48.
"Russia","Mariy‐El","Volzhsk",54519,55.85,48.51,100.
"Russia","Krasnoyarsk","Nazarovo",54349,56.01,90.38,254.
"Russia","Moskovskaya Oblast","Ivanteyevka",54274,55.97,37.92,141.
"Russia","Krasnodar","Anapa",54173,44.89,37.32,19.
"Russia","Krasnodar","Timashyovsk",54151,45.62,38.95,17.
"Russia","Murmansk","Severomorsk",54067,69.07000000000001,33.42,8.
"Russia","Krasnodar","Belorechensk",53966,44.77,39.87,117.
"Russia","Tver'","Vyshniy Volochyok",53756,57.58,34.56,158.
"Russia","Voronezh","Georgiu‐Dezh",53627,50.980000000000004,39.56,119.
"Russia","Nizhegorod","Balakhna",53425,56.49,43.59,75.
"Russia","Sverdlovsk","Lesnoy",53193,58.65,59.800000000000004,217.
"Russia","Smolensk","Vyazma",53117,55.21,34.29,222.
"Russia","Moskovskaya Oblast","Vidnoye",53101,55.550000000000004,37.71,164.
"Russia","Orenburg","Buguruslan",52946,53.65,52.43,71.
"Russia","Moskovskaya Oblast","Domodedovo",52696,55.43,37.75,161.
"Russia","Perm'","Krasnokamsk",52675,58.07,55.75,91.
"Russia","Moskovskaya Oblast","Fryazino",52335,55.95,38.050000000000004,168.
"Russia","Rostov","Donetsk",51560,48.35,40.03,32.
"Russia","Orel","Livny",51494,52.42,37.6,170.
"Russia","Moskovskaya Oblast","Lytkarino",51309,55.58,37.9,127.
"Russia","Krasnodar","Gelendzhik",51282,44.57,38.07,10.
"Russia","Irkutsk","Cheremkhovo",51230,53.160000000000004,103.07000000000001,563.
"Russia","Smolensk","Yartsevo",50748,55.07,32.67,177.
"Russia","Leningrad","Kingisepp",50513,59.370000000000005,28.6,21.
"Russia","Tver'","Kimry",50455,56.870000000000005,37.35,118.
"Russia","Chelyabinsk","Snezhinsk",50391,56.09,60.730000000000004,271.
"Russia","Primor'ye","Spassk‐Dalniy",50185,44.6,132.82,101.
"Russia","Murmansk","Monchegorsk",50129,67.92,32.82,161.
"Russia","Perm'","Chusovoy",50068,58.29,57.82,123.
"Russia","Altay","Zarinsk",49882,53.72,84.93,166.
"Russia","Sverdlovsk","Verkhnyaya Salda",49398,58.050000000000004,60.550000000000004,196.
"Russia","Khakass","Sayanogorsk",49121,53.09,91.4,324.
"Russia","Samara","Otradnyy",48933,53.370000000000005,51.35,56.
"Russia","Yamal‐Nenets","Nadym",48847,65.53,72.52,7.
"Russia","Kemerovo","Osinniki",48780,53.620000000000005,87.35000000000001,266.
"Russia","Dagestan","Kizlyar",48772,43.85,46.72,-6.
"Russia","Mordovia","Ruzajevka",48588,54.07,44.93,222.
"Russia","Novosibirsk","Kujbysev",48469,55.45,78.32000000000001,113.
"Russia","Udmurt","Mozhga",48362,56.45,52.19,127.
"Russia","Irkutsk","Shelekhov",48331,52.21,104.10000000000001,458.
"Russia","Leningrad","Vsevolozhsk",48023,60.02,30.68,16.
"Russia","Khanty‐Mansiy","Raduzhnyy",47877,62.09,77.23,70.
"Russia","Tver'","Torzhok",47796,57.04,34.97,160.
"Russia","Chelyabinsk","Satka",47702,55.04,59.04,416.
"Russia","Khanty‐Mansiy","Megion",47527,61.050000000000004,76.10000000000001,43.
"Russia","Krasnoyarsk","Talnakh",47307,69.5,88.45,91.
"Russia","Sverdlovsk","Beryozovskiy",47195,56.910000000000004,60.800000000000004,251.
"Russia","Komi","Pechora",47167,65.15,57.21,59.
"Russia","Kemerovo","Beryozovskiy",47108,55.67,86.26,193.
"Russia","Khabarovsk","Amursk",46687,50.22,136.9,37.
"Russia","Irkutsk","Ust‐Kut",46662,56.77,105.65,348.
"Russia","Lipetsk","Gryazi",46641,52.49,39.94,127.
"Russia","Kursk","Kurchatov",46463,51.59,35.65,235.
"Russia","Krasnodar","Kurganinsk",46388,44.88,40.6,166.
"Russia","Vladimir","Kolchugino",46285,56.300000000000004,39.38,181.
"Russia","Chechnya","Urus‐Martan",46138,43.13,45.54,235.
"Russia","Orel","Mtsensk",46129,53.27,36.550000000000004,177.
"Russia","Smolensk","Safonovo",46045,55.15,33.22,219.
"Russia","Leningrad","Volkhov",45949,59.93,32.34,32.
"Russia","Rostov","Belaya Kalitva",45625,48.18,40.79,25.
"Russia","Ingush","Malgobek",45612,43.54,44.58,489.
"Russia","Belgorod","Shebekino",45608,50.410000000000004,36.9,110.
"Russia","Chuvash","Kanash",45501,55.51,47.47,185.
"Russia","Gorno‐Altay","Kamen‐na‐Obi",45140,53.79,81.34,125.
"Russia","Krasnodar","Kanevskaya",45000,46.1,38.9,20.
"Russia","Chelyabinsk","Chebarkul",44951,54.980000000000004,60.370000000000005,334.
"Russia","Komi","Usinsk",44805,65.92,57.410000000000004,41.
"Russia","Tomsk","Strezhevoy",44255,60.730000000000004,77.59,42.
"Russia","Tambov","Rasskazovo",44180,52.67,41.9,155.
"Russia","Irkutsk","Sayansk",43820,53.99,102.10000000000001,441.
"Russia","Sverdlovsk","Kachkanar",43763,58.7,59.49,365.
"Russia","Krasnodar","Pashkovskiy",43634,45.02,39.11,29.
"Russia","Moskovskaya Oblast","Dzerzhinskiy",43475,55.63,37.84,152.
"Russia","Chechnya","Shali",43457,43.15,45.9,223.
"Russia","Saratov","Rtishchevo",43448,52.26,43.79,208.
"Russia","Astrakhan'","Akhtubinsk",43379,48.28,46.17,3.
"Russia","City of St. Petersburg","Krasnoye Selo",43134,59.74,30.09,110.
"Russia","Leningrad","Sertolovo",43124,60.15,30.2,42.
"Russia","Rostov","Krasnyy Sulin",43058,47.89,40.08,128.
"Russia","City of St. Petersburg","Kronshtadt",42987,59.99,29.77,9.
"Russia","Vladimir","Vyazniki",42948,56.25,42.17,78.
"Russia","Sverdlovsk","Alapajevsk",42920,57.85,61.690000000000005,126.
"Russia","Arkhangel'sk","Koryazhma",42831,61.31,47.13,83.
"Russia","Yaroslavl'","Pereslavl‐Zalesskiy",42729,56.730000000000004,38.85,140.
"Russia","Nizhegorod","Zavolzhye",42573,56.64,43.410000000000004,76.
"Russia","Arkhangel'sk","Pervomayskiy",42537,64.43,40.83,1.
"Russia","Bryansk","Novozybkov",42509,52.54,31.93,158.
"Russia","Krasnodar","Ust‐Labinsk",42493,45.21,39.69,53.
"Russia","Kemerovo","Myski",42417,53.7,87.8,287.
"Russia","Chuvash","Ratorosh",42406,54.85,46.6,138.
"Russia","Saratov","Pugachyov",42154,52.01,48.800000000000004,29.
"Russia","Sverdlovsk","Irbit",42072,57.67,63.06,71.
"Russia","Yaroslavl'","Tutayev",41972,57.89,39.550000000000004,131.
"Russia","Tatarstan","Zainsk",41933,55.32,52.06,93.
"Russia","Kemerovo","Mariinsk",41772,56.21,87.75,128.
"Russia","Irkutsk","Tulun",41671,54.56,100.57000000000001,474.
"Russia","Primor'ye","Partizansk",41602,43.13,133.13,162.
"Russia","Sverdlovsk","Krasnoufimsk",41559,56.6,57.76,206.
"Russia","Khanty‐Mansiy","Uray",41491,60.13,64.76,53.
"Russia","Kaluga","Lyudinovo",41388,53.870000000000005,34.45,183.
"Russia","Bashkortostan","Birsk",41328,55.42,55.54,146.
"Russia","City of St. Petersburg","Sestroretsk",41281,60.09,29.95,4.
"Russia","Dagestan","Izberbash",41236,42.56,47.86,2.
"Russia","Vologda","Sokol",41186,59.46,40.12,116.
"Russia","Krasnodar","Korenovsk",41135,45.47,39.45,32.
"Russia","Volgograd","Uryupinsk",41081,50.78,42.,76.
"Russia","Khanty‐Mansiy","Pyt‐Yakh",41005,60.75,72.7833,"null"
"Russia","Khanty‐Mansiy","Langepas",40796,61.17,75.39,20.
"Russia","Orenburg","Gay",40783,51.47,58.46,378.
"Russia","Chelyabinsk","Kyshtym",40759,55.7,60.56,277.
"Russia","Kaliningrad","Sovetsk",40486,55.07,21.88,15.
"Russia","North Ossetia","Mozdok",40383,43.75,44.65,133.
"Russia","Kamchatka","Yelizovo",40141,53.18,158.38,31.
"Russia","Stavropol'","Zelenokumsk",40140,44.410000000000004,43.88,146.
"Russia","Penza","Kamenka",39917,53.19,44.04,159.
"Russia","Kaliningrad","Chernyakhovsk",39874,54.63,21.81,30.
"Russia","Volgograd","Frolovo",39795,49.77,43.65,106.
"Russia","Moskovskaya Oblast","Kashira",39787,54.84,38.17,176.
"Russia","Bashkortostan","Uchaly",39623,54.300000000000004,59.44,549.
"Russia","Tver'","Konakovo",39533,56.7,36.77,127.
"Russia","Krasnodar","Apsheronsk",39482,44.46,39.730000000000004,206.
"Russia","Stavropol'","Svetlograd",39463,45.34,42.85,132.
"Russia","Leningrad","Luga",39426,58.74,29.84,60.
"Russia","Kirov","Vyatskiye Polyany",39384,56.22,51.08,115.
"Russia","Yamal‐Nenets","Salekhard",39375,66.53,66.6,25.
"Russia","Chelyabinsk","Korkino",39366,54.89,61.4,240.
"Russia","Tambov","Morshansk",39362,53.45,41.81,109.
"Russia","Belgorod","Alekseyevka",39314,50.64,38.7,96.
"Russia","Sverdlovsk","Rezh",39273,57.370000000000005,61.4,165.
"Russia","Ivanovo","Vichuga",39236,57.21,41.93,138.
"Russia","Sverdlovsk","Tavda",39051,58.050000000000004,65.26,75.
"Russia","Amur","Tynda",38957,55.17,124.72,537.
"Russia","Chechnya","Gudermes",38953,43.36,46.11,53.
"Russia","Kaluga","Kirov",38888,54.08,34.31,195.
"Russia","Rostov","Aksay",38871,47.26,39.87,33.
"Russia","Chelyabinsk","Yuzhnouralsk",38834,54.44,61.26,236.
"Russia","Stavropol'","Izobilnyy",38777,45.37,41.71,199.
"Russia","Sakha","Mirnyy",38661,62.54,113.96000000000001,337.
"Russia","Irkutsk","Nizhneudinsk",38370,54.9,99.03,415.
"Russia","Krasnoyarsk","Sharypovo",38242,55.54,89.2,310.
"Russia","Primor'ye","Bolshoy Kamen",38198,43.12,132.36,18.
"Russia","Krasnodar","Leningradskaya",38000,46.31,39.39,29.
"Russia","Ivanovo","Furmanov",37977,57.25,41.1,123.
"Russia","Rostov","Millerovo",37735,48.93,40.39,128.
"Russia","Nizhegorod","Kulebaki",37601,55.410000000000004,42.53,107.
"Russia","Primor'ye","Dalnegorsk",37519,44.54,135.51,274.
"Russia","Irkutsk","Tayshet",37275,55.93,97.99000000000001,327.
"Russia","Yamal‐Nenets","Muravlenko",37256,63.78,73.5,102.
"Russia","Primor'ye","Lesozavodsk",37034,45.480000000000004,133.42000000000002,68.
"Russia","Moskovskaya Oblast","Protvino",37001,54.870000000000005,37.22,135.
"Russia","Tyumen'","Yalutorovsk",36610,56.67,66.3,60.
"Russia","Nizhegorod","Bogorodsk",36567,56.1,43.52,131.
"Russia","Yaroslavl'","Uglich",36503,57.53,38.33,117.
"Russia","Leningrad","Tosno",36458,59.550000000000004,30.88,37.
"Russia","Khanty‐Mansiy","Lyantor",36249,61.58,72.31,61.
"Russia","Perm'","Dobryanka",35959,58.46,56.410000000000004,117.
"Russia","Voronezh","Novovoronezh",35951,51.32,39.22,109.
"Russia","Krasnodar","Temryuk",35918,45.27,37.38,23.
"Russia","Perm'","Chernushka",35841,56.51,56.07,140.
"Russia","Belgorod","Valuyki",35784,50.21,38.1,88.
"Russia","Penza","Serdobsk",35780,52.47,44.22,207.
"Russia","Leningrad","Slantsy",35774,59.1,28.07,37.
"Russia","North Ossetia","Bersinyurt",35716,43.2,44.54,486.
"Russia","Ivanovo","Teykovo",35610,56.85,40.54,117.
"Russia","Stavropol'","Goryachevodskiy",35539,44.02,43.09,512.
"Russia","Sakhalin","Korsakov",35526,46.64,142.78,61.
"Russia","Tula","Yefremov",35505,53.15,38.13,149.
"Russia","Sverdlovsk","Sukhoy Log",35430,56.910000000000004,62.03,169.
"Russia","Moskovskaya Oblast","Troitsk",35088,55.480000000000004,37.31,183.
"Russia","Krasnodar","Gulkevichi",35042,45.36,40.71,96.
"Russia","Krasnodar","Dinskaya",35000,45.22,39.230000000000004,32.
"Russia","Gorno‐Altay","Slavgorod",34825,53.,78.67,113.
"Russia","Tatarstan","Aznakay",34775,54.86,53.07,193.
"Russia","Krasnodar","Novokubansk",34769,45.1,41.050000000000004,146.
"Russia","Chuvash","Shumerlya",34763,55.49,46.42,86.
"Russia","Krasnodar","Kalinino",34594,45.14,39.,29.
"Russia","Ryazan'","Kasimov",34544,54.94,41.39,107.
"Russia","Chelyabinsk","Tryokhgornyy",34391,54.82,58.46,449.
"Russia","Novgorod","Staraya Russa",34175,57.99,31.36,26.
"Russia","Karelia","Kondopoga",34063,62.2,34.28,60.
"Russia","Sverdlovsk","Artyomovskiy",34045,57.36,61.870000000000005,176.
"Russia","Ingush","Karabulak",34011,43.300000000000004,44.9,414.
"Russia","Karachay‐Cherkess","Ust‐Dzheguta",34001,44.09,41.97,624.
"Russia","Sverdlovsk","Kushva",33890,58.29,59.75,229.
"Russia","Krasnodar","Abinsk",33729,44.87,38.160000000000004,29.
"Russia","Kabardin‐Balkar","Dokshukino",33622,43.59,43.76,302.
"Russia","Dagestan","Kizilyurt",33529,43.21,46.87,56.
"Russia","Chelyabinsk","Verkhniy Ufaley",33458,56.06,60.230000000000004,367.
"Russia","Karelia","Segezha",33276,63.75,34.33,74.
"Russia","Kaliningrad","Baltiysk",33255,54.65,19.91,1.
"Russia","Bashkortostan","Blagoveshchensk",33255,55.04,55.980000000000004,104.
"Russia","Bryansk","Dyatkovo",33202,53.6,34.34,205.
"Russia","Kirov","Slobodskoy",33115,58.72,50.19,144.
"Russia","Stavropol'","Blagodarnyy",33026,45.1,43.44,152.
"Russia","Sverdlovsk","Severouralsk",32979,60.15,59.96,166.
"Russia","Tambov","Kotovsk",32955,52.59,41.51,142.
"Russia","Tatarstan","Nurlat",32954,54.43,50.77,144.
"Russia","Sakhalin","Kholmsk",32892,47.050000000000004,142.06,82.
"Russia","Saratov","Petrovsk",32881,52.32,45.38,180.
"Russia","Saratov","Privolzhskiy",32874,51.4,46.03,24.
"Russia","Tula","Bogoroditsk",32827,53.77,38.12,235.
"Russia","Moskovskaya Oblast","Istra",32647,55.92,36.86,171.
"Russia","Vologda","Velikiy Ustyug",32389,60.77,46.300000000000004,85.
"Russia","Astrakhan'","Kapustin Yar‐1",32357,48.58,45.75,1.
"Russia","Krasnodar","Primorsko‐Akhtarsk",32245,46.04,38.18,-5.
"Russia","Moskovskaya Oblast","Lukhovitsy",32133,54.97,39.04,125.
"Russia","Tver'","Udomlya",32106,57.88,34.99,169.
"Russia","Komi","Inta",32080,66.04,60.17,51.
"Russia","Sverdlovsk","Bogdanovich",32072,56.78,62.050000000000004,164.
"Russia","Murmansk","Kandalaksha",32034,67.16,32.410000000000004,29.
"Russia","Tula","Donskoy",31968,53.97,38.32,215.
"Russia","Smolensk","Desnogorsk",31919,54.15,33.28,206.
"Russia","Ryazan'","Skopin",31894,53.83,39.58,167.
"Russia","Saratov","Marks",31864,51.71,46.72,18.
"Russia","Chelyabinsk","Asha",31811,55.,57.27,135.
"Russia","Yaroslavl'","Rostov",31792,57.19,39.4,100.
"Russia","Nizhegorod","Gorodets",31707,56.65,43.480000000000004,103.
"Russia","Voronezh","Ostrogozhsk",31700,50.870000000000005,39.08,117.
"Russia","Moskovskaya Oblast","Yubileynyy",31647,55.9333,37.85,"null"
"Russia","Moskovskaya Oblast","Shatura",31523,55.58,39.54,126.
"Russia","Khanty‐Mansiy","Yugorsk",31515,61.31,63.33,112.
"Russia","Vladimir","Kirzhach",31472,56.17,38.87,136.
"Russia","Moskovskaya Oblast","Mozhaysk",31266,55.5,36.03,214.
"Russia","Perm'","Kudymkar",31265,59.02,54.67,133.
"Russia","Kaluga","Maloyaroslavets",31249,55.01,36.47,200.
"Russia","Irkutsk","Zima",31229,53.93,102.04,458.
"Russia","Novosibirsk","Barabinsk",31173,55.35,78.35000000000001,119.
"Russia","Moskovskaya Oblast","Likino‐Dulyovo",31080,55.7,38.96,129.
"Russia","Krasnodar","Pavlovskaya",31000,46.13,39.79,51.
"Russia","Samara","Kinel",30930,53.230000000000004,50.65,36.
"Russia","Murmansk","Kirovsk",30925,67.61,33.67,357.
"Russia","Chita","Borzya",30737,50.38,116.52,687.
"Russia","Kemerovo","Topki",30683,56.28,86.60000000000001,201.
"Russia","Bashkortostan","Dyurtyuli",30658,55.49,54.88,81.
"Russia","Krasnoyarsk","Divnogorsk",30621,55.96,92.36,283.
"Russia","Krasnoyarsk","Sosnovoborsk",30435,56.13,93.36,162.
"Russia","Orenburg","Mednogorsk",30154,51.42,57.58,307.
"Russia","Sverdlovsk","Karpinsk",30065,59.76,60.01,205.
"Russia","Krasnodar","Starominskaya",30000,46.53,39.050000000000004,21.
"Russia","Krasnodar","Kushchevskaya",30000,46.56,39.64,13.
"Russia","Karelia","Kostomuksha",29825,64.68,30.82,156.
"Russia","Moskovskaya Oblast","Golitsino‐2",29774,55.6,37.0333,"null"
"Russia","Khabarovsk","Sovetskaya Gavan",29634,48.97,140.28,38.
"Russia","Chelyabinsk","Yemanzhelinsk",29574,54.75,61.300000000000004,234.
"Russia","Ryazan'","Sasovo",29568,54.35,41.910000000000004,107.
"Russia","Moskovskaya Oblast","Nakhabino",29460,55.83,37.26,196.
"Russia","Chelyabinsk","Kartaly",29375,53.050000000000004,60.67,292.
"Russia","Khanty‐Mansiy","Poykovskiy",29303,61.230000000000004,73.33,23.
"Russia","Orenburg","Sorochinsk",29233,52.43,53.17,91.
"Russia","Moskovskaya Oblast","Shcherbinka",29207,55.5,37.56,166.
"Russia","Novosibirsk","Ob",29194,54.99,82.71000000000001,107.
"Russia","Primor'ye","Dalnerechensk",29085,45.93,133.72,57.
"Russia","Krasnodar","Poltavskaya",29000,45.36,38.21,5.
"Russia","Arkhangel'sk","Mirnyy",28935,61.33,44.54,110.
"Russia","Komi","Sosnogorsk",28889,63.6,53.88,104.
"Russia","Tula","Kimovsk",28701,53.97,38.53,224.
"Russia","Rostov","Morozovsk",28687,48.35,41.83,83.
"Russia","Moskovskaya Oblast","Tomilino",28670,55.660000000000004,37.94,135.
"Russia","Gorno‐Altay","Aleysk",28657,52.49,82.78,171.
"Russia","Ivanovo","Kokhma",28567,56.93,41.09,110.
"Russia","Orenburg","Kuvandyk",28511,51.480000000000004,57.35,208.
"Russia","Sverdlovsk","Kamyshlov",28384,56.84,62.71,85.
"Russia","Novosibirsk","Karasuk",28340,53.730000000000004,78.03,110.
"Russia","Samara","Pokhvistnevo",28258,53.63,52.13,89.
"Russia","Stavropol'","Inozemtsevo",28176,44.1,43.09,478.
"Russia","Kaliningrad","Gusev",28051,54.59,22.2,44.
"Russia","Chechnya","Ustargardoyn‐Evl",28050,43.300000000000004,45.87,113.
"Russia","Bryansk","Unecha",28040,52.85,32.68,186.
"Russia","Stavropol'","Ipatovo",28029,45.72,42.9,102.
"Russia","Stavropol'","Aleksandrovskoye",28006,44.71,43.,325.
"Russia","Stavropol'","Kochubeyevskoye",28000,44.660000000000004,41.83,387.
"Russia","Krasnodar","Goryachiy Klyuch",28000,44.63,39.13,64.
"Russia","Rostov","Zernograd",27957,46.85,40.31,88.
"Russia","Tambov","Uvarovo",27888,51.99,42.26,147.
"Russia","Kemerovo","Polysayevo",27851,54.58,86.24,167.
"Russia","Sverdlovsk","Krasnouralsk",27821,58.35,60.050000000000004,229.
"Russia","Ivanovo","Rodniki",27706,57.1,41.730000000000004,148.
"Russia","Tomsk","Asino",27705,57.,86.15,104.
"Russia","Saratov","Atkarsk",27698,51.88,45.,184.
"Russia","Moskovskaya Oblast","Dedovsk",27656,55.870000000000005,37.12,192.
"Russia","Sverdlovsk","Zarechnyy",27431,56.81,61.33,248.
"Russia","Kirov","Kotelnich",27406,58.31,48.32,133.
"Russia","Yamal‐Nenets","Labytnangi",27387,66.66,66.42,1.
"Russia","Amur","Zeya",27330,53.75,127.27,226.
"Russia","Krasnoyarsk","Kayerkan",27295,69.38,87.74,67.
"Russia","Kabardin‐Balkar","Mayskiy",27264,43.68,44.07,198.
"Russia","Orenburg","Sol‐Iletsk",27189,51.160000000000004,55.,123.
"Russia","Irkutsk","Zheleznogorsk‐Ilimskiy",27177,56.57,104.12,467.
"Russia","Bashkortostan","Yanaul",27139,56.28,54.93,95.
"Russia","Sakhalin","Okha",26863,53.57,142.95000000000002,21.
"Russia","Omsk","Tara",26778,56.9,74.37,70.
"Russia","Stavropol'","Novoaleksandrovsk",26729,45.49,41.22,118.
"Russia","Perm'","Gubakha",26605,58.870000000000005,57.59,268.
"Russia","Khabarovsk","Nikolayevsk‐na‐Amure",26591,53.14,140.72,15.
"Russia","Volgograd","Kalach‐na‐Donu",26586,48.71,43.5,37.
"Russia","Stavropol'","Neftekumsk",26421,44.67,44.92,51.
"Russia","Dagestan","Dagestanskiye Ogni",26393,42.12,48.18,32.
"Russia","Samara","Oktyabrsk",26354,53.17,48.64,153.
"Russia","Novosibirsk","Tatarsk",26293,55.22,75.97,106.
"Russia","Kemerovo","Guryevsk",26244,54.29,85.94,230.
"Russia","Arkhangel'sk","Velsk",26210,61.07,42.1,94.
"Russia","Moskovskaya Oblast","Kubinka",26197,55.58,36.69,197.
"Russia","Smolensk","Gzhatsk",26100,55.550000000000004,35.,188.
"Russia","Volgograd","Kotovo",26026,50.300000000000004,44.82,136.
"Russia","Moskovskaya Oblast","Ozyory",26023,54.85,38.54,107.
"Russia","Voronezh","Pavlovsk",25835,50.46,40.11,93.
"Russia","Moskovskaya Oblast","Krasnoarmeysk",25781,56.1,38.13,156.
"Russia","Primor'ye","Fokino",25780,42.980000000000004,132.4,24.
"Russia","Buryat","Severobaykalsk",25742,55.65,109.32000000000001,528.
"Russia","Sverdlovsk","Nevyansk",25593,57.49,60.21,245.
"Russia","Tver'","Bezhetsk",25494,57.78,36.7,141.
"Russia","Voronezh","Buturlinovka",25391,50.82,40.61,125.
"Russia","Tula","Kireyevsk",25349,53.94,37.92,211.
"Russia","Adygey","Yablonovskiy",25345,44.99,38.94,16.
"Russia","Tver'","Bologoye",25299,57.870000000000005,34.05,179.
"Russia","Tomsk","Kolpashevo",25292,58.31,82.91,59.
"Russia","Krasnodar","Mostovskoy",25281,44.410000000000004,40.79,382.
"Russia","Kostroma","Nerekhta",25135,57.46,40.57,101.
"Russia","City of St. Petersburg","Metallostroy",25123,59.800000000000004,30.580000000000002,14.
"Russia","Kirov","Omutninsk",25097,58.67,52.18,194.
"Russia","Chelyabinsk","Ust‐Katav",25062,54.94,58.17,302.
"Russia","Tyumen'","Zavodoukovsk",25006,56.51,66.54,67.
"Russia","Krasnoyarsk","Dudinka",24988,69.41,86.18,24.
"Russia","Kemerovo","Kaltan",24986,53.5,87.28,276.
"Russia","Buryat","Gusinoozyorsk",24982,51.28,106.5,550.
"Russia","Khanty‐Mansiy","Sovetskiy",24835,61.36,63.58,110.
"Russia","Kemerovo","Tayga",24832,56.06,85.62,242.
"Russia","Nizhegorod","Semyonov",24807,56.800000000000004,44.49,110.
"Russia","Kostroma","Sharya",24778,58.370000000000005,45.51,121.
"Russia","Irkutsk","Vikhorevka",24753,56.09,101.25,354.
"Russia","Sakha","Lensk",24558,60.730000000000004,114.93,197.
"Russia","Moskovskaya Oblast","Volokolamsk",24548,56.03,35.97,187.
"Russia","Kostroma","Buy",24531,58.480000000000004,41.53,96.
"Russia","Kamchatka","Vilyuchinsk",24434,53.07,158.62,173.
"Russia","Moskovskaya Oblast","Zaraysk",24433,54.77,38.88,156.
"Russia","Stavropol'","Zheleznovodsk",24389,44.14,43.02,591.
"Russia","Penza","Nikolsk",24272,53.71,46.08,246.
"Russia","Tver'","Nelidovo",24244,56.22,32.78,197.
"Russia","Rostov","Zverevo",24139,48.02,40.12,241.
"Russia","Sakha","Aldan",24045,58.6,125.39,636.
"Russia","Ingush","Ekazhevo",24000,43.22,44.82,528.
"Russia","Krasnodar","Tbilisskaya",24000,45.36,40.19,81.
"Russia","Bashkortostan","Davlekanovo",23960,54.22,55.050000000000004,119.
"Russia","Voronezh","Semiluki",23940,51.69,39.02,140.
"Russia","Ingush","Troitskaya",23745,43.300000000000004,45.01,331.
"Russia","Omsk","Kalachinsk",23705,55.050000000000004,74.57000000000001,103.
"Russia","Moskovskaya Oblast","Kalininets",23676,55.5585,36.9749,"null"
"Russia","Penza","Nizhniy Lomov",23624,53.52,43.68,148.
"Russia","Leningrad","Kirovsk",23602,59.870000000000005,31.,21.
"Russia","Murmansk","Olenegorsk",23581,68.15,33.3,156.
"Russia","Amur","Raychikhinsk",23528,49.77,129.42000000000002,207.
"Russia","Saratov","Krasnoarmeysk",23468,51.02,45.7,199.
"Russia","Sverdlovsk","Nizhnyaya Tura",23345,58.63,59.800000000000004,205.
"Russia","Samara","Bezenchuk",23314,52.980000000000004,49.43,41.
"Russia","Rostov","Semikarakorsk",23250,47.52,40.81,12.
"Russia","Nizhegorod","Lyskovo",23152,56.03,45.04,94.
"Russia","Omsk","Isilkul",23151,54.92,71.27,125.
"Russia","Kaluga","Balabanovo",23144,55.18,36.660000000000004,159.
"Russia","Stavropol'","Novopavlovsk",23001,43.96,43.63,330.
"Russia","Krasnodar","Severskaya",23000,44.85,38.68,47.
"Russia","Krasnodar","Novotitarovskaya",23000,45.24,38.980000000000004,21.
"Russia","Tatarstan","Bavly",22913,54.38,53.28,192.
"Russia","Kemerovo","Tashtagol",22835,52.78,87.88,573.
"Russia","Moskovskaya Oblast","Monino",22821,55.84,38.19,148.
"Russia","Perm'","Osa",22813,57.2829207,55.4602059,91.
"Russia","Krasnoyarsk","Bogotol",22708,56.21,89.52,294.
"Russia","Arkhangel'sk","Onega",22696,63.92,38.08,23.
"Russia","Perm'","Vereshchagino",22682,58.08,54.65,214.
"Russia","Kursk","Lgov",22567,51.69,35.28,165.
"Russia","Sverdlovsk","Kirovgrad",22532,57.44,60.06,268.
"Russia","Krasnodar","Ilskiy",22518,44.84,38.58,63.
"Russia","Stavropol'","Lermontov",22477,44.11,42.97,657.
"Russia","Novosibirsk","Linyovo",22423,54.43,83.37,217.
"Russia","Leningrad","Pikalyovo",22401,59.52,34.17,179.
"Russia","Lipetsk","Dankov",22385,53.25,39.15,131.
"Russia","Primor'ye","Luchegorsk",22304,46.480000000000004,134.24,78.
"Russia","Leningrad","Lodeynoye Pole",22280,60.730000000000004,33.56,23.
"Russia","Perm'","Kizel",22211,59.06,57.64,275.
"Russia","Ryazan'","Ryazhsk",22202,53.71,40.07,106.
"Russia","Udmurt","Igra",22200,57.56,53.04,183.
"Russia","Moskovskaya Oblast","Losino‐Petrovskiy",22197,55.870000000000005,38.2,143.
"Russia","Nizhegorod","Sergach",22182,55.53,45.47,118.
"Russia","Voronezh","Novaya Usman",22165,51.64,39.42,104.
"Russia","Amur","Shimanovsk",22144,52.,127.7,272.
"Russia","Arkhangel'sk","Nyandoma",22136,61.67,40.2,223.
"Russia","Tatarstan","Mendeleyevsk",22027,55.89,52.32,108.
"Russia","Krasnodar","Otradnaya",22000,44.39,41.52,446.
"Russia","Krasnodar","Bryukhovetskaya",22000,45.800000000000004,39.,17.
"Russia","Chechnya","Kurchaloy",22000,43.2,46.09,180.
"Russia","Yamal‐Nenets","Gubkinskiy",21990,64.46000000000001,76.62,56.
"Russia","Moskovskaya Oblast","Roshal",21983,55.67,39.88,113.
"Russia","City of St. Petersburg","Lomonosov",21900,59.910000000000004,29.75,39.
"Russia","Novosibirsk","Toguchin",21825,55.24,84.39,136.
"Russia","Kaliningrad","Svetlyy",21805,54.68,20.13,1.
"Russia","Chelyabinsk","Bakal",21762,54.94,58.800000000000004,604.
"Russia","Leningrad","Otradnoye",21537,59.78,30.82,19.
"Russia","Vologda","Sheksna",21523,59.22,38.5,101.
"Russia","Bashkortostan","Shishma",21521,54.58968,55.385605,107.
"Russia","Nizhegorod","Shakhunya",21444,57.67,46.62,155.
"Russia","Moskovskaya Oblast","Pushchino",21281,54.83,37.6,163.
"Russia","Moskovskaya Oblast","Staraya Kupavna",21269,55.800000000000004,38.17,140.
"Russia","Mordovia","Kovylkino",21216,54.01,43.64,209.
"Russia","Sverdlovsk","Sysert",21021,56.5,60.81,235.
"Russia","Krasnoyarsk","Beryozovka",21006,56.04,93.14,146.
"Russia","Karachay‐Cherkess","Zelenchukskaya",21000,43.86,41.59,941.
"Russia","Kabardin‐Balkar","Dugulubgey",20965,43.660000000000004,43.54,448.
"Russia","Bashkortostan","Priyutovo",20859,53.9,53.93,295.
"Russia","Tatarstan","Buinsk",20854,54.95,48.28,74.
"Russia","Belgorod","Stroitel",20787,50.79,36.480000000000004,230.
"Russia","Krasnodar","Khadyzhensk",20766,44.43,39.53,107.
"Russia","Gorno‐Altay","Yarovoye",20746,52.9,78.58,78.
"Russia","Lipetsk","Lebedyan",20713,53.01,39.14,139.
"Russia","Moscow","Vnukovo",20592,55.6,37.18,187.
"Russia","Pskov","Ostrov",20568,57.35,28.32,52.
"Russia","Perm'","Nytva",20551,57.94,55.33,105.
"Russia","Belgorod","Novyy Oskol",20539,50.76,37.87,109.
"Russia","Moskovskaya Oblast","Elektrogorsk",20486,55.88,38.79,133.
"Russia","Moskovskaya Oblast","Elektrougli",20454,55.71,38.34,149.
"Russia","Moskovskaya Oblast","Khotkovo",20453,56.25,38.,184.
"Russia","Leningrad","Priozyorsk",20440,61.03,30.12,2.
"Russia","Moskovskaya Oblast","Chernogolovka",20423,56.,38.37,147.
"Russia","Kabardin‐Balkar","Nizhne Bakhsen",20376,43.42,42.92,1636.
"Russia","Chita","Petrovsk‐Zabaykalskiy",20334,51.28,108.83,799.
"Russia","Tula","Suvorov",20329,54.120000000000005,36.49,185.
"Russia","Mariy‐El","Kozmodemyansk",20327,56.34,46.57,91.
"Russia","Voronezh","Kalach",20295,50.43,41.01,88.
"Russia","Ryazan'","Novomichurinsk",20254,54.04,39.78,117.
"Russia","Gorno‐Altay","Talmenka",20212,53.82,83.56,141.
"Russia","Vladimir","Sobinka",20205,55.980000000000004,40.02,109.
"Russia","Voronezh","Bobrov",20189,51.1,40.03,150.
"Russia","Karelia","Sortavala",20115,61.7,30.68,7.
"Russia","Volgograd","Surovikino",20107,48.61,42.85,43.
"Russia","Novosibirsk","Cherepanovo",20067,54.230000000000004,83.37,281.
"Russia","Tatarstan","Arsk",20046,56.09,49.88,106.
"Russia","Volgograd","Gorodishche",19995,48.81,44.51,52.
"Russia","Saratov","Yershov",19993,51.35,48.25,98.
"Russia","Stavropol'","Yessentukskaya",19956,44.04,42.9,589.
"Russia","Murmansk","Kovdor",19906,67.56,30.47,209.
"Russia","Bryansk","Karachev",19870,53.120000000000005,34.99,204.
"Russia","Kabardin‐Balkar","Terek",19843,43.480000000000004,44.14,260.
"Russia","Yamal‐Nenets","Tarko‐Sale",19798,64.92,77.79,25.
"Russia","Khanty‐Mansiy","Beloyarskiy",19794,63.71,66.37,15.
"Russia","Kirov","Yaransk",19750,57.300000000000004,47.88,120.
"Russia","Volgograd","Kotelnikovo",19688,47.63,43.15,46.
"Russia","Karachay‐Cherkess","Karachayevsk",19677,43.78,41.910000000000004,867.
"Russia","Sverdlovsk","Sredneuralsk",19623,56.99,60.47,278.
"Russia","Udmurt","Uva",19619,56.99,52.19,123.
"Russia","Khabarovsk","Bikin",19585,46.82,134.26,69.
"Russia","Leningrad","Podporozhye",19577,60.92,34.19,22.
"Russia","Lipetsk","Usman",19530,52.050000000000004,39.72,154.
"Russia","North Ossetia","Alagir",19528,42.97,44.21,753.
"Russia","Ul'yanovsk","Inza",19491,53.85,46.36,184.
"Russia","Vladimir","Yuryev‐Polskiy",19441,56.5,39.67,140.
"Russia","Rostov","Proletarsk",19408,46.7,41.72,16.
"Russia","Sverdlovsk","Ivdel",19379,60.69,60.42,82.
"Russia","Krasnodar","Novopokrovskaya",19342,45.95,40.7,59.
"Russia","Rostov","Orlovskiy",19325,46.87,42.050000000000004,96.
"Russia","Voronezh","Anna",19316,51.49,40.43,143.
"Russia","Krasnodar","Yelizavetinskaya",19306,45.03,38.800000000000004,14.
"Russia","Chelyabinsk","Kusa",19298,55.34,59.44,365.
"Russia","Krasnoyarsk","Yeniseysk",19294,58.45,92.16,79.
"Russia","Krasnodar","Akhtyrskiy",19273,44.85,38.300000000000004,38.
"Russia","Kaluga","Kozelsk",19269,54.04,35.78,167.
"Russia","Orenburg","Abdulino",19222,53.7,53.67,219.
"Russia","Chelyabinsk","Katav‐Ivanovsk",19217,54.75,58.2,435.
"Russia","Gorno‐Altay","Yuzhnyy",19193,53.25,83.69,212.
"Russia","Ingush","Nesterovskaya",19186,43.230000000000004,45.03,452.
"Russia","Moskovskaya Oblast","Kraskovo",19148,55.65,37.980000000000004,132.
"Russia","Nenets","Naryan‐Mar",19127,67.65,53.050000000000004,10.
"Russia","Bashkortostan","Mezhgorye",19119,54.05,57.8167,"null"
"Russia","Moskovskaya Oblast","Kurovskoye",19097,55.58,38.910000000000004,119.
"Russia","Samara","Neftegorsk",19084,52.82,51.2,63.
"Russia","Ryazan'","Rybnoye",19039,54.730000000000004,39.51,104.
"Russia","Bashkortostan","Rayevskiy",19000,54.07,54.93,117.
"Russia","Krasnoyarsk","Borodino",18958,55.910000000000004,94.89,318.
"Russia","Tver'","Ostashkov",18955,57.15,33.1,203.
"Russia","Moskovskaya Oblast","Skhodnya",18897,55.95,37.300000000000004,197.
"Russia","Bashkortostan","Agidel",18889,55.88,53.93,70.
"Russia","Bryansk","Zhukovka",18849,53.53,33.72,169.
"Russia","Buryat","Kyakhta",18841,50.35,106.45,780.
"Russia","Kurgan","Shumikha",18815,55.230000000000004,63.300000000000004,173.
"Russia","Krasnodar","Staroshcherbinovskaya",18785,46.63,38.67,9.
"Russia","Saratov","Kalininsk",18770,51.5,44.47,149.
"Russia","Irkutsk","Slyudyanka",18764,51.660000000000004,103.71000000000001,540.
"Russia","Krasnodar","Vyselki",18746,45.58,39.660000000000004,56.
"Russia","Khabarovsk","Vanino",18742,49.08,140.25,64.
"Russia","Sverdlovsk","Turinsk",18726,58.050000000000004,63.7,98.
"Russia","Sverdlovsk","Talitsa",18709,57.02,63.71,65.
"Russia","Moskovskaya Oblast","Kotelniki",18699,55.65,37.86,164.
"Russia","Krasnoyarsk","Shushenskoye",18670,53.33,91.94,277.
"Russia","Tatarstan","Ogyrchi",18640,56.52,53.,91.
"Russia","Volgograd","Novoanninskiy",18635,50.53,42.68,94.
"Russia","Kostroma","Manturovo",18607,58.34,44.76,132.
"Russia","Rostov","Konstantinovsk",18600,47.58,41.09,25.
"Russia","Primor'ye","Trudovoye",18484,43.31,132.08,30.
"Russia","Moskovskaya Oblast","Nikolsko‐Arkhangelskiy",18483,55.75,37.9,153.
"Russia","Chelyabinsk","Kasli",18431,55.89,60.76,231.
"Russia","Bryansk","Seltso",18424,53.36,34.11,146.
"Russia","Moskovskaya Oblast","Malakhovka",18423,55.65,38.02,134.
"Russia","Stavropol'","Nezlobnaya",18412,44.12,43.4,312.
"Russia","Moskovskaya Oblast","Bronnitsy",18409,55.43,38.27,108.
"Russia","Samara","Kinel‐Cherkassy",18393,53.47,51.5,45.
"Russia","Chechnya","Avtury",18370,43.160000000000004,46.,261.
"Russia","Bryansk","Starodub",18368,52.58,32.76,166.
"Russia","Tambov","Kirsanov",18365,52.660000000000004,42.71,147.
"Russia","Moskovskaya Oblast","Aprelevka",18341,55.54,37.07,186.
"Russia","Murmansk","Zapolyarnyy",18321,69.41,30.8,130.
"Russia","North Ossetia","Ardon",18313,43.18,44.29,415.
"Russia","Kabardin‐Balkar","Chegem",18298,43.28,43.13,2205.
"Russia","Moskovskaya Oblast","Tuchkovo",18151,55.6,36.47,201.
"Russia","Astrakhan'","Kharabali",18106,47.410000000000004,47.26,-10.
"Russia","Krasnodar","Afipskiy",18072,44.9,38.84,22.
"Russia","Sverdlovsk","Reftinskiy",18001,57.09,61.68,187.
"Russia","Krasnodar","Belaya Glina",17997,46.07,40.87,58.
"Russia","Rostov","Yegorlykskaya",17978,46.56,40.65,99.
"Russia","Moskovskaya Oblast","Beloozyorskiy",17932,55.47,38.49,143.
"Russia","Volgograd","Zhirnovsk",17887,50.980000000000004,44.77,116.
"Russia","Ul'yanovsk","Barysh",17879,53.65,47.13,190.
"Russia","Voronezh","Povorino",17834,51.2,42.25,116.
"Russia","Sverdlovsk","Nizhnyaya Salda",17829,58.08,60.730000000000004,170.
"Russia","Kostroma","Volgorechensk",17825,57.44,41.160000000000004,109.
"Russia","Tula","Yasnogorsk",17806,54.480000000000004,37.7,245.
"Russia","Kurgan","Kurtamysh",17791,54.910000000000004,64.43,110.
"Russia","Vladimir","Raduzhnyy",17787,55.9978,40.3297,"null"
"Russia","Stavropol'","Svobody",17771,44.03,43.050000000000004,495.
"Russia","Kemerovo","Kedrovka",17752,55.52,86.09,156.
"Russia","Adygey","Enem",17733,44.93,38.9,21.
"Russia","Ivanovo","Privolzhsk",17723,57.38,41.29,113.
"Russia","Perm'","Krasnovishersk",17687,60.4,57.08,128.
"Russia","Rostov","Zimovniki",17678,47.15,42.46,58.
"Russia","Kemerovo","Promyshlennaya",17658,54.92,85.64,175.
"Russia","Tula","Kosaya Gora",17619,54.17,37.56,173.
"Russia","Murmansk","Polyarnyy",17568,69.2,33.45,15.
"Russia","Novosibirsk","Bolotnoye",17496,55.68,84.39,176.
"Russia","Krasnodar","Kholmskaya",17494,44.85,38.39,45.
"Russia","Orenburg","Saraktash",17413,51.79,56.36,141.
"Russia","Pskov","Nevel",17404,56.03,29.92,158.
"Russia","Sakhalin","Nevelsk",17381,46.67,141.86,4.
"Russia","Novosibirsk","Krasnoobsk",17373,54.92,82.98,114.
"Russia","Ingush","Kantyshevo",17363,43.22,44.63,508.
"Russia","Yaroslavl'","Gavrilov‐Yam",17351,57.300000000000004,39.85,104.
"Russia","Chelyabinsk","Plast",17306,54.370000000000005,60.81,304.
"Russia","Primor'ye","Kavalerovo",17281,44.27,135.05,214.
"Russia","Leningrad","Kommunar",17275,59.620000000000005,30.400000000000002,60.
"Russia","Stavropol'","Suvorovskaya",17261,44.19,42.65,464.
"Russia","Leningrad","Nikolskoye",17200,59.5,34.96,176.
"Russia","Kursk","Rylsk",17193,51.57,34.68,171.
"Russia","Tambov","Stroitel",17176,50.7833,36.4833,"null"
"Russia","Leningrad","Boksitogorsk",17149,59.480000000000004,33.85,95.
"Russia","Nizhegorod","Navashino",17123,55.53,42.2,76.
"Russia","Bryansk","Pochyop",17094,52.93,33.46,141.
"Russia","Sakhalin","Poronaysk",17091,49.22,143.12,1.
"Russia","Tatarstan","Menzelinsk",17043,55.72,53.1,90.
"Russia","Voronezh","Pridonskoy",17006,51.68,39.06,93.
"Russia","Bashkortostan","Baymak",16947,52.59,58.32,496.
"Russia","Krasnodar","Medvedovskaya",16941,45.45,39.03,12.
"Russia","Kostroma","Galich",16922,58.38,42.35,110.
"Russia","Ul'yanovsk","Novoulyanovsk",16889,54.17,48.38,73.
"Russia","Kaluga","Kondrovo",16881,54.81,35.93,142.
"Russia","Saratov","Novouzensk",16866,50.46,48.14,23.
"Russia","Voronezh","Gribanovskiy",16801,51.46,41.97,164.
"Russia","Chechnya","Achkhoy‐Martan",16779,43.19,45.29,244.
"Russia","Khanty‐Mansiy","Pokachi",16747,61.75,75.5833,"null"
"Russia","Tatarstan","Vasilyevo",16730,55.84,48.75,58.
"Russia","Yaroslavl'","Danilov",16573,58.18,40.18,161.
"Russia","Mariy‐El","Medvedevo",16572,56.63,47.82,111.
"Russia","Tula","Severo‐Zadonsk",16569,54.03,38.4,231.
"Russia","Moskovskaya Oblast","Golitsyno",16539,55.61,36.980000000000004,188.
"Russia","Volgograd","Pallasovka",16510,50.050000000000004,46.88,31.
"Russia","Moskovskaya Oblast","Vostryakovo",16509,55.39,37.81,165.
"Russia","Tatarstan","Kukmor",16505,56.18,50.89,101.
"Russia","Krasnoyarsk","Ilanskiy",16416,56.24,96.06,277.
"Russia","Tula","Plavsk",16405,53.71,37.29,188.
"Russia","Komi","Yemva",16404,62.59,50.86,106.
"Russia","Udmurt","Balezino",16389,57.99,52.99,152.
"Russia","Vladimir","Lakinsk",16356,56.02,39.95,134.
"Russia","Novosibirsk","Kochenyovo",16352,55.02,82.19,149.
"Russia","Irkutsk","Chunskiy",16334,56.09,99.65,293.
"Russia","Novosibirsk","Kupino",16252,54.36,77.28,113.
"Russia","Sakha","Aykhal",16222,66.,111.5,458.
"Russia","Ingush","Surkhakhi",16215,43.19,44.910000000000004,694.
"Russia","Karelia","Medvezhyegorsk",16211,62.92,34.45,39.
"Russia","Stavropol'","Krasnogvardeyskoye",16169,45.85,41.52,49.
"Russia","Krasnoyarsk","Uzhur",16166,55.32,89.82000000000001,375.
"Russia","Tver'","Kashin",16152,57.36,37.61,122.
"Russia","Astrakhan'","Kamyzyak",16112,46.11,48.07,-24.
"Russia","Belgorod","Razumnoye",16098,50.54,36.7,131.
"Russia","Dagestan","Belidzhi",16078,41.9,48.42,-12.
"Russia","Tyumen'","Borovskiy",16046,57.04,65.73,57.
"Russia","Volgograd","Nikolajevsk",16044,50.02,45.43,8.
"Russia","Ryazan'","Shilovo",16024,54.32,40.88,97.
"Russia","Kemerovo","Novyy Gorodok",15993,54.3,86.2833,"null"
"Russia","Kaluga","Sukhinichi",15989,54.1,35.34,221.
"Russia","Chechnya","Tsotsin‐Yurt",15970,43.24,46.,140.
"Russia","Novosibirsk","Koltsovo",15938,54.92,83.25,192.
"Russia","Bryansk","Trubchyovsk",15907,52.58,33.77,171.
"Russia","Murmansk","Murmashi",15859,68.83,32.660000000000004,50.
"Russia","Stavropol'","Arzgir",15838,45.37,44.22,69.
"Russia","Volgograd","Gorkovskiy",15815,48.69,44.4,106.
"Russia","Buryat","Selenginsk",15789,52.01,106.8,500.
"Russia","Novgorod","Pestovo",15778,58.6,35.800000000000004,122.
"Russia","Rostov","Persianovskiy",15730,47.53,39.42,29.
"Russia","Murmansk","Polyarnyye Zori",15711,67.41,32.5,158.
"Russia","Stavropol'","Divnoye",15700,45.910000000000004,43.35,89.
"Russia","Irkutsk","Bodaybo",15689,57.85,114.19,277.
"Russia","Perm'","Aleksandrovsk",15676,59.160000000000004,57.57,171.
"Russia","Orenburg","Yasnyy",15675,51.03,59.88,351.
"Russia","Sverdlovsk","Degtyarsk",15675,56.7,60.1,358.
"Russia","Vladimir","Melenki",15664,55.34,41.63,127.
"Russia","Kirov","Sovetsk",15646,57.58,48.96,123.
"Russia","Chelyabinsk","Sim",15622,55.,57.69,196.
"Russia","Murmansk","Nikel",15605,69.41,30.22,140.
"Russia","Khabarovsk","Vyazemskiy",15605,47.53,134.75,77.
"Russia","Murmansk","Skalistyy",15605,69.26,33.35,9.
"Russia","Vladimir","Pokrov",15604,55.910000000000004,39.18,113.
"Russia","Vladimir","Karabanovo",15604,56.32,38.7,174.
"Russia","Gorno‐Altay","Gornyak",15577,50.99,81.47,277.
"Russia","Chelyabinsk","Karabash",15548,55.480000000000004,60.22,348.
"Russia","Kursk","Shchigry",15540,51.870000000000005,36.910000000000004,207.
"Russia","Vologda","Gryazovets",15535,58.88,40.25,187.
"Russia","City of St. Petersburg","Shushary",15503,59.77,30.47,16.
"Russia","Sakha","Udachnyy",15495,66.42,112.4,298.
"Russia","Vladimir","Strunino",15474,56.38,38.57,174.
"Russia","Stavropol'","Donskoye",15469,45.43,41.980000000000004,129.
"Russia","Kemerovo","Yashkino",15442,55.88,85.43,251.
"Russia","Gorno‐Altay","Mayma",15428,52.050000000000004,85.92,250.
"Russia","Irkutsk","Baykalsk",15422,51.51,104.15,552.
"Russia","Leningrad","Svetogorsk",15406,61.120000000000005,28.85,48.
"Russia","Chita","Nerchinsk",15360,52.,116.55,474.
"Russia","Moskovskaya Oblast","Moskovskiy",15356,55.6,37.36,183.
"Russia","Gorno‐Altay","Kulunda",15345,52.58,78.95,134.
"Russia","Khakass","Abaza",15335,52.660000000000004,90.09,496.
"Russia","Vladimir","Petushki",15307,55.93,39.47,126.
"Russia","Kemerovo","Bachatskiy",15304,54.25,86.10000000000001,318.
"Russia","Rostov","Bagaevskaya",15252,47.32,40.4,5.
"Russia","Gorno‐Altay","Novosilikatnyy",15241,53.32,83.64,200.
"Russia","Bryansk","Shkotovo‐17",15218,53.45,34.410000000000004,183.
"Russia","Moskovskaya Oblast","Sofrino",15212,56.15,37.93,184.
"Russia","Adygey","Giaginskaya",15169,44.87,40.07,125.
"Russia","Perm'","Ocher",15130,57.88,54.7,136.
"Russia","Karachay‐Cherkess","Uchkeken",15118,43.94,42.51,962.
"Russia","Krasnoyarsk","Kodinsk",15107,58.69,99.18,182.
"Russia","Volgograd","Leninsk",15097,48.71,45.2,-7.
"Russia","Ivanovo","Yuzha",15094,56.58,42.01,101.
"Russia","Volgograd","Dubovka",15057,49.06,44.81,32.
"Russia","Voronezh","Boguchar",15048,49.94,40.56,77.
"Russia","Volgograd","Yelan",15046,50.95,43.730000000000004,117.
"Russia","Tula","Belyov",15033,53.81,36.13,158.
"Russia","Khakass","Ust‐Abakan",15022,53.85,91.37,248.
"Russia","Novosibirsk","Suzun",15007,53.79,82.31,141.
"Russia","Primor'ye","Vrangel",14981,42.730000000000004,133.08,12.
"Russia","Kurgan","Kataysk",14951,56.29,62.58,108.
"Russia","Belgorod","Chernyanka",14911,50.94,37.81,125.
"Russia","Sverdlovsk","Aramil",14911,56.7,60.83,220.
"Russia","Krasnodar","Ladozhskaya",14904,45.31,39.94,95.
"Russia","Saratov","Krasnyy Kut",14879,50.95,46.97,45.
"Russia","Tatarstan","Kamskiye Polyany",14863,55.42,51.33,138.
"Russia","Volgograd","Petrov Val",14853,50.15,45.2,97.
"Russia","North Ossetia","Zavodskoy",14837,43.12,44.71,593.
"Russia","Nizhegorod","Pervomaysk",14831,54.870000000000005,43.81,161.
"Russia","Gorno‐Altay","Pavlovsk",14827,53.33,82.98,154.
"Russia","Khabarovsk","Chegdomyn",14807,51.120000000000005,133.02,355.
"Russia","Chechnya","Bachi‐Yurt",14788,43.22,46.2,196.
"Russia","Primor'ye","Slavyanka",14742,42.87,131.37,51.
"Russia","Novgorod","Chudovo",14730,59.13,31.66,32.
"Russia","Rostov","Tsimlyansk",14727,47.65,42.1,81.
"Russia","Gorno‐Altay","Belokurikha",14727,51.99,84.99,334.
"Russia","Orenburg","Akbulak",14719,51.0058,55.6194,"null"
"Russia","Irkutsk","Svirsk",14712,53.09,103.33,438.
"Russia","Rostov","Chaltyr",14689,47.29,39.5,18.
"Russia","Rostov","Kuleshovka",14668,47.07,39.56,6.
"Russia","Moskovskaya Oblast","Peresvet",14654,56.4167,38.1833,"null"
"Russia","Chelyabinsk","Novosineglazovskiy",14620,55.03,61.38,245.
"Russia","Krasnoyarsk","Kuragino",14620,53.9,92.67,282.
"Russia","Krasnodar","Krylovskaya",14605,46.32,39.97,27.
"Russia","Volgograd","Krasnoslobodsk",14574,48.71,44.57,-4.
"Russia","Irkutsk","Ust‐Ordynskiy",14538,52.800000000000004,104.75,505.
"Russia","Kaluga","Tovarkovo",14511,54.68,35.94,155.
"Russia","Sverdlovsk","Koltsovo",14493,56.76,60.82,235.
"Russia","Tatarstan","Dzhalil",14476,55.02,52.74,288.
"Russia","Chelyabinsk","Roza",14444,54.910000000000004,61.46,234.
"Russia","Krasnodar","Varenikovskaya",14409,45.12,37.65,15.
"Russia","Novgorod","Valday",14379,57.97,33.25,213.
"Russia","Chita","Shilka",14371,51.85,116.03,493.
"Russia","Kurgan","Dalmatovo",14356,56.26,62.92,80.
"Russia","Rostov","Matveyev Kurgan",14342,47.56,38.87,26.
"Russia","Bryansk","Klimovo",14324,52.38,32.19,166.
"Russia","Tver'","Kalyazin",14305,57.24,37.84,117.
"Russia","City of St. Petersburg","Strelna",14302,59.86,30.05,12.
"Russia","Tambov","Zherdevka",14296,51.85,41.46,116.
"Russia","Chita","Sherlovaya Gora",14287,50.53,116.3,751.
"Russia","Kalmyk","Kaspiyskiy",14278,45.39,47.37,-26.
"Russia","Kemerovo","Gramoteino",14249,54.52,86.37,219.
"Russia","Moskovskaya Oblast","Lopatinskiy",14219,55.33,38.730000000000004,118.
"Russia","Tula","Venyov",14211,54.35,38.27,190.
"Russia","Belgorod","Borisovka",14203,50.620000000000005,35.99,210.
"Russia","Khabarovsk","Solnechnyy",14188,50.59,137.03,35.
"Russia","Komi","Severnyy",14182,67.6,64.12,120.
"Russia","Khanty‐Mansiy","Belyy Yar",14165,62.26,73.18,59.
"Russia","Samara","Sukhodol",14160,53.88,51.22,98.
"Russia","Dagestan","Akhty",14080,41.46,47.730000000000004,1079.
"Russia","Volgograd","Srednyaya Akhtuba",14052,48.71,44.87,12.
"Russia","Mordovia","Komsomolskiy",14018,54.45,45.82,189.
"Russia","Saratov","Arkadak",13987,51.94,43.5,130.
"Russia","Primor'ye","Chernigovka",13969,44.34,132.59,83.
"Russia","Krasnodar","Anapskaya",13965,44.9,37.38,24.
"Russia","Tver'","Toropets",13959,56.5,31.63,180.
"Russia","Bashkortostan","Iglino",13958,54.84,56.44,116.
"Russia","Karelia","Kem",13948,64.95,34.57,2.
"Russia","Chelyabinsk","Gornyak",13946,55.14,61.690000000000005,202.
"Russia","Chelyabinsk","Krasnogorskiy",13940,54.6,61.22,242.
"Russia","Murmansk","Snezhnogorsk",13932,69.19,33.230000000000004,99.
"Russia","Dagestan","Leninkent",13912,42.97,47.35,116.
"Russia","Bryansk","Navlya",13897,52.83,34.5,175.
"Russia","Tyumen'","Golyshmanovo",13870,56.38,68.38,119.
"Russia","Tatarstan","Mamadysh",13860,55.71,51.410000000000004,54.
"Russia","Dagestan","Babayurt",13857,43.6,46.78,-1.
"Russia","Vladimir","Kameshkovo",13852,56.35,41.,106.
"Russia","Gorno‐Altay","Altayskoye",13852,51.95,85.33,297.
"Russia","Smolensk","Verkhnedneprovskiy",13832,54.980000000000004,33.33,205.
"Russia","Ryazan'","Korablino",13808,53.92,40.01,134.
"Russia","Kursk","Oboyan",13801,51.21,36.45,188.
"Russia","Vladimir","Gorokhovets",13789,56.19,42.7,117.
"Russia","Kemerovo","Tyazhinskiy",13737,56.120000000000005,88.51,203.
"Russia","Sverdlovsk","Novaya Lyalya",13706,59.06,60.6,100.
"Russia","Bryansk","Kletnya",13691,53.39,33.22,183.
"Russia","Chita","Baley",13676,51.6,116.63,795.
"Russia","Voronezh","Somovo",13661,51.730000000000004,39.36,105.
"Russia","Chuvash","Tsivilsk",13636,55.86,47.47,89.
"Russia","Stavropol'","Krasnokumskoye",13630,44.18,43.5,244.
"Russia","Saratov","Khvalynsk",13628,52.49,48.1,56.
"Russia","Rostov","Donskoy",13627,47.4,40.26,3.
"Russia","Rostov","Likhovskoy",13617,48.15,40.19,200.
"Russia","Gorno‐Altay","Pospelikha",13586,51.95,81.77,183.
"Russia","Moskovskaya Oblast","Krasnozavodsk",13586,56.45,38.22,202.
"Russia","Tuva","Ak‐Dovurak",13578,51.18,90.60000000000001,843.
"Russia","Sverdlovsk","Arti",13558,56.42,58.53,242.
"Russia","Leningrad","Syasstroy",13545,60.14,32.57,9.
"Russia","Chelyabinsk","Yuryuzan",13500,54.86,58.42,385.
"Russia","Saratov","Stepnoye",13498,51.4,46.87,66.
"Russia","City of St. Petersburg","Pavlovsk",13474,59.68,30.45,36.
"Russia","Moskovskaya Oblast","Selyatino",13454,55.52,36.97,195.
"Russia","Moskovskaya Oblast","Zvenigorod",13422,55.730000000000004,36.85,144.
"Russia","Amur","Zavitinsk",13390,50.120000000000005,129.45,226.
"Russia","Krasnodar","Kalininskaya",13363,45.480000000000004,38.660000000000004,5.
"Russia","Kemerovo","Inskoy",13363,54.43,86.42,211.
"Russia","Primor'ye","Chuguyevka",13354,44.160000000000004,133.87,265.
"Russia","Novgorod","Malaya Vishera",13345,58.85,32.2,61.
"Russia","Krasnodar","Petrovskaya",13340,45.43,37.96,1.
"Russia","Pskov","Opochka",13334,56.71,28.650000000000002,90.
"Russia","Tula","Skuratovskiy",13325,54.11,37.6,245.
"Russia","Moskovskaya Oblast","Udelnaya",13283,55.620000000000005,38.,115.
"Russia","Tambov","Pervomayskiy",13282,53.230000000000004,40.300000000000004,154.
"Russia","Novosibirsk","Maslyanino",13275,54.34,84.21000000000001,205.
"Russia","Murmansk","Zaozyorsk",13275,69.4,32.44,68.
"Russia","Chechnya","Goyty",13250,43.160000000000004,45.62,221.
"Russia","Moskovskaya Oblast","Ruza",13246,55.7,36.2,169.
"Russia","Lipetsk","Chaplygin",13239,53.24,39.96,131.
"Russia","Omsk","Tavricheskoye",13239,54.58,73.63,93.
"Russia","Dagestan","Karabudakhkent",13207,42.71,47.56,211.
"Russia","Kostroma","Vetluzhskiy",13195,58.39,45.45,106.
"Russia","Arkhangel'sk","Vychegodskiy",13192,61.24,46.910000000000004,78.
"Russia","Orenburg","Novosergiyevka",13188,52.09,53.64,127.
"Russia","Kaliningrad","Gvardeysk",13186,54.65,21.07,5.
"Russia","Perm'","Polazna",13159,58.29,56.410000000000004,171.
"Russia","Chechnya","Oyskhara",13131,43.26,46.25,194.
"Russia","Krasnodar","Starovelichkovskaya",13111,45.43,38.730000000000004,12.
"Russia","Chita","Pervomayskiy",13106,51.67,115.63,674.
"Russia","Krasnoyarsk","Uyar",13094,55.81,94.31,333.
"Russia","Voronezh","Talovaya",13080,51.11,40.730000000000004,132.
"Russia","Buryat","Zakamensk",13077,50.38,103.27,1165.
"Russia","Chita","Aginskoye",13074,51.1,114.53,675.
"Russia","Moskovskaya Oblast","Yakhroma",13070,56.300000000000004,37.480000000000004,143.
"Russia","Chuvash","Kozlovka",13069,55.76,48.2,180.
"Russia","Sverdlovsk","Bulanash",13056,57.27,61.99,138.
"Russia","Karelia","Pitkyaranta",13028,61.57,31.48,34.
"Russia","Amur","Progress",13014,49.75,129.68,143.
"Russia","Moscow","Vostochnyy",13011,55.82,37.87,166.
"Russia","Chelyabinsk","Nyazepetrovsk",12984,56.050000000000004,59.6,319.
"Russia","Moskovskaya Oblast","Taldom",12953,56.730000000000004,37.53,141.
"Russia","Irkutsk","Kirensk",12940,57.79,108.11,253.
"Russia","Krasnodar","Staroderevyankovskaya",12918,46.12,38.97,11.
"Russia","Khakass","Sorsk",12914,54.,90.25,756.
"Russia","Ryazan'","Mikhaylov",12884,54.230000000000004,39.02,125.
"Russia","Ivanovo","Zavolzhsk",12847,57.480000000000004,42.14,126.
"Russia","Krasnodar","Vasyurinskaya",12830,45.12,39.42,42.
"Russia","Saratov","Svetlyy",12778,51.67,45.63,199.
"Russia","Perm'","Gornozavodsk",12726,58.38,58.32,295.
"Russia","Khabarovsk","Elban",12719,50.09,136.51,57.
"Russia","Vladimir","Sudogda",12711,55.95,40.86,97.
"Russia","Kabardin‐Balkar","Nartan",12694,43.51,43.7,395.
"Russia","Pskov","Pechory",12693,57.82,27.6,78.
"Russia","Kemerovo","Yaya",12689,56.2,86.44,135.
"Russia","Primor'ye","Livadiya",12652,42.87,132.68,11.
"Russia","Chita","Chernyshevsk",12632,52.53,117.,531.
"Russia","Nizhegorod","Lukoyanov",12627,55.04,44.49,195.
"Russia","Kirov","Lyangasovo",12626,58.52,49.45,139.
"Russia","Stavropol'","Solnechnodolsk",12605,45.26,41.34,191.
"Russia","Volgograd","Svetlyy Yar",12586,48.480000000000004,44.79,10.
"Russia","Omsk","Nazyvajevsk",12578,55.57,71.33,123.
"Russia","Rostov","Pokrovskoye",12576,47.42,38.9,13.
"Russia","Voronezh","Kantemirovka",12551,49.7,39.86,114.
"Russia","Leningrad","Schlusselburg",12546,59.95,31.03,6.
"Russia","Sakhalin","Uglegorsk",12534,49.08,142.03,-2.
"Russia","Sverdlovsk","Beloyarskiy",12534,56.76,61.38,201.
"Russia","Gorno‐Altay","Blagoveshchenka",12511,52.83,79.87,106.
"Russia","Kirov","Sosnovka",12428,56.26,51.28,84.
"Russia","North Ossetia","Elkhotovo",12425,43.34,44.2,312.
"Russia","Sverdlovsk","Verkhniy Tagil",12406,57.38,59.96,257.
"Russia","Chita","Karymskoye",12398,51.620000000000005,114.35000000000001,598.
"Russia","Kirov","Zujevka",12367,58.4060241,51.1388605,148.
"Russia","Krasnodar","Starotitarovskaya",12351,45.21,37.14,12.
"Russia","Karelia","Belomorsk",12344,64.53,34.77,5.
"Russia","Kaliningrad","Neman",12320,55.03,22.03,29.
"Russia","Kaluga","Zhukovo",12312,55.03,36.74,133.
"Russia","Arkhangel'sk","Konosha",12306,60.97,40.26,203.
"Russia","Udmurt","Kambarka",12295,56.25,54.18,65.
"Russia","Vologda","Babajevo",12292,59.39,35.94,138.
"Russia","Kaluga","Sosenskiy",12289,54.06,35.96,220.
"Russia","Gorno‐Altay","Sibirskiy",12283,53.58,83.77,180.
"Russia","Kaliningrad","Zelenogradsk",12266,54.96,20.490000000000002,-3.
"Russia","Rostov","Kamenolomni",12262,47.67,40.21,71.
"Russia","Orel","Bolkhov",12234,53.45,36.02,155.
"Russia","Moskovskaya Oblast","Zaprudnya",12233,56.57,37.43,129.
"Russia","Voronezh","Ertil",12227,51.86,40.81,132.
"Russia","Dagestan","Kasumkent",12225,41.68,48.14,506.
"Russia","Adygey","Adygeysk",12196,44.88,39.19,48.
"Russia","Kaluga","Kremenki",12163,54.89,37.13,121.
"Russia","Leningrad","Volosovo",12148,59.45,29.5,136.
"Russia","Chita","Mogocha",12146,53.730000000000004,119.77,627.
"Russia","Rostov","Mayskiy",12136,47.7,40.1,119.
"Russia","Leningrad","Siverskiy",12131,59.35,30.080000000000002,100.
"Russia","Omsk","Bolshereche",12108,56.09,74.62,75.
"Russia","Bashkortostan","Kandry",12100,54.57,54.120000000000005,182.
"Russia","Novosibirsk","Chulym",12074,55.1,80.96000000000001,138.
"Russia","Krasnoyarsk","Yemelyanovo",12059,56.19,92.67,202.
"Russia","Krasnodar","Novominskaya",12049,46.32,38.96,24.
"Russia","Nizhegorod","Vorsma",12047,55.99,43.27,88.
"Russia","Orel","Znamenka",12047,52.92,36.02,167.
"Russia","Stavropol'","Kurskaya",12036,44.050000000000004,44.45,170.
"Russia","Primor'ye","Pogranichnyy",12007,44.42,131.38,168.
"Russia","Sverdlovsk","Nizhniye Sergi",12003,56.65,59.29,306.
"Russia","North Ossetia","Digora",11999,43.160000000000004,44.160000000000004,453.
"Russia","Volgograd","Ilovlya",11996,49.300000000000004,43.980000000000004,40.
"Russia","Nizhegorod","Uren",11991,57.46,45.78,102.
"Russia","Tyumen'","Vinzili",11971,56.97,65.77,72.
"Russia","City of St. Petersburg","Pargolovo",11962,60.08,30.26,33.
"Russia","Kemerovo","Krasnobrodskiy",11952,54.17,86.47,253.
"Russia","Omsk","Cherlak",11917,54.15,74.8,76.
"Russia","Ivanovo","Yuryevets",11912,57.33,43.11,98.
"Russia","Astrakhan'","Narimanov",11905,46.69,47.85,-22.
"Russia","Chechnya","Geldagan",11901,43.21,46.04,168.
"Russia","Kurgan","Petukhovo",11896,55.07,67.86,130.
"Russia","Sakhalin","Aleksandrovsk‐Sakhalinskiy",11885,50.9,142.16,9.
"Russia","Belgorod","Volokonovka",11883,50.480000000000004,37.86,103.
"Russia","City of St. Petersburg","Zelenogorsk",11866,60.2,29.69,25.
"Russia","Krasnoyarsk","Dubinino",11851,55.67,89.10000000000001,273.
"Russia","Ingush","Sagopshi",11848,43.49,44.58,393.
"Russia","Krasnodar","Uspenskoye",11843,44.83,41.4,250.
"Russia","Amur","Seryshevo",11839,51.06,128.21,157.
"Russia","Bryansk","Lokot",11836,52.57,34.58,210.
"Russia","Bashkortostan","Krasnousolskiy",11819,53.89,56.47,147.
"Russia","Bryansk","Surazh",11812,53.02,32.39,173.
"Russia","Dagestan","Kayakent",11805,42.38,47.9,145.
"Russia","Tver'","Likhoslavl",11790,57.13,35.46,166.
"Russia","Dagestan","Nizhneye Kazanishche",11765,42.76,47.160000000000004,637.
"Russia","Kaliningrad","Pionerskiy",11761,54.95,20.22,26.
"Russia","Kaluga","Borovsk",11747,55.21,36.49,162.
"Russia","Pskov","Porkhov",11737,57.77,29.53,61.
"Russia","Penza","Mokshan",11731,53.44,44.62,213.
"Russia","Ingush","Yandare",11730,43.27,44.92,498.
"Russia","Chuvash","Kugesi",11727,56.03,47.300000000000004,179.
"Russia","Nizhegorod","Pochinki",11724,54.7,44.85,116.
"Russia","Perm'","Gremyachinsk",11719,58.56,57.84,315.
"Russia","Sakhalin","Dolinsk",11712,47.35,142.8,10.
"Russia","Krasnodar","Platnirovskaya",11710,45.39,39.39,40.
"Russia","Kirov","Luza",11689,60.620000000000005,47.27,97.
"Russia","Krasnodar","Kavkazskaya",11680,45.45,40.67,137.
"Russia","Sakha","Markha",11648,62.1,129.76,112.
"Russia","Ul'yanovsk","Cherdakly",11646,54.33,48.83,78.
"Russia","Tatarstan","Tetyushi",11612,54.92,48.83,173.
"Russia","Krasnodar","Oktyabrskaya",11608,46.29,39.82,61.
"Russia","Kirov","Belaya Kholunitsa",11581,58.84,50.84,140.
"Russia","Kabardin‐Balkar","Shalushka",11577,43.53,43.57,484.
"Russia","Nizhegorod","Chkalovsk",11569,56.76,43.24,91.
"Russia","Tver'","Redkino",11553,56.63,36.28,128.
"Russia","North Ossetia","Sunzha",11548,43.06,44.82,690.
"Russia","Chelyabinsk","Bazhovo",11537,55.06,61.620000000000005,206.
"Russia","Komi","Nizhniy Odes",11516,63.64,54.86,179.
"Russia","Nizhegorod","Mulino",11513,56.28,42.93,124.
"Russia","Mariy‐El","Zvenigovo",11504,55.97,48.02,71.
"Russia","Penza","Zemetchino",11492,53.5,42.62,128.
"Russia","Primor'ye","Kamen‐Rybolov",11489,44.74,132.06,75.
"Russia","Krasnoyarsk","Zaozyornyy",11477,55.96,94.7,207.
"Russia","Vologda","Kaduy",11469,59.2,37.15,116.
"Russia","North Ossetia","Nogir",11469,43.08,44.64,624.
"Russia","Gorno‐Altay","Mikhaylovskoye",11467,51.82,79.72,171.
"Russia","Moskovskaya Oblast","Drezna",11452,55.75,38.84,120.
"Russia","Khabarovsk","Khor",11441,47.88,134.95,58.
"Russia","Gorno‐Altay","Shipunovo",11431,52.17,82.23,187.
"Russia","Stavropol'","Praskoveya",11420,44.74,44.2,114.
"Russia","Amur","Magdagachi",11415,53.45,125.8,342.
"Russia","Kirov","Kirs",11405,59.33,52.27,166.
"Russia","Bryansk","Pogar",11382,52.56,33.26,155.
"Russia","Stavropol'","Levokumskoye",11377,44.82,44.660000000000004,67.
"Russia","Vladimir","Yuryevets",11352,56.1,40.27,134.
"Russia","Rostov","Peschanokopskoye",11340,46.2,41.08,74.
"Russia","Moskovskaya Oblast","Lvovskiy",11337,55.31,37.53,178.
"Russia","Khanty‐Mansiy","Mezhdurechenskiy",11312,59.6,65.93,38.
"Russia","Dagestan","Sultan Yangiyurt",11308,43.22,46.87,42.
"Russia","Adygey","Khanskaya",11297,44.68,39.96,159.
"Russia","Rostov","Ust‐Donetskiy",11279,47.64,40.87,47.
"Russia","Rostov","Tatsinskaya",11258,48.2,41.28,91.
"Russia","Primor'ye","Khorol",11245,44.42,132.1,97.
"Russia","Bashkortostan","Chekmagush",11225,55.13,54.660000000000004,146.
"Russia","Rostov","Glubokiy",11225,48.52,40.33,63.
"Russia","Gorno‐Altay","Volchikha",11212,52.03,80.38,206.
"Russia","Orenburg","Novoorsk",11212,51.38,58.980000000000004,211.
"Russia","Krasnoyarsk","Boguchany",11209,58.38,97.45,142.
"Russia","Gorno‐Altay","Zmeinogorsk",11206,51.160000000000004,82.2,407.
"Russia","Krasnodar","Anastasiyevskaya",11204,45.21,37.89,-23.
"Russia","Komi","Mikun",11202,62.370000000000005,50.06,132.
"Russia","Chukot","Anadyr",11193,64.75,177.48,-8.
"Russia","Karelia","Suoyarvi",11173,62.08,32.35,158.
"Russia","Chelyabinsk","Starokamyshinsk",11158,55.06,61.54,218.
"Russia","Chechnya","Mesker‐Yurt",11147,43.25,45.910000000000004,136.
"Russia","Vologda","Vytegra",11140,61.,36.4,67.
"Russia","Kaliningrad","Guryevsk",11132,54.77,20.61,20.
"Russia","Dagestan","Botlikh",11131,42.660000000000004,46.22,843.
"Russia","Leningrad","Vyritsa",11107,59.42,30.35,66.
"Russia","Vologda","Kharovsk",11092,59.96,40.19,159.
"Russia","Tatarstan","Urussu",11082,54.58,53.45,98.
"Russia","Sverdlovsk","Troitskiy",11081,57.06,63.730000000000004,72.
"Russia","Rostov","Tselina",11075,46.53,41.03,108.
"Russia","Stavropol'","Soldato‐Aleksandrovskoye",11059,44.27,43.76,182.
"Russia","Kostroma","Neya",11046,58.28,43.88,103.
"Russia","Stavropol'","Kursavka",11043,44.46,42.51,395.
"Russia","Yamal‐Nenets","Pangody",11042,65.92,74.83,48.
"Russia","Sverdlovsk","Bisert",11032,56.86,59.050000000000004,304.
"Russia","Ul'yanovsk","Novospasskoye",11019,53.15,47.76,70.
"Russia","Rostov","Chertkovo",11012,49.39,40.28,100.
"Russia","Arkhangel'sk","Kargopol",11007,61.5,38.97,128.
"Russia","Leningrad","Ivangorod",10999,59.370000000000005,28.22,33.
"Russia","Kaluga","Vorotynsk",10977,54.43,36.050000000000004,140.
"Russia","Tuva","Shagonar",10973,51.53,92.8,536.
"Russia","Sverdlovsk","Baranchinskiy",10970,58.160000000000004,59.7,231.
"Russia","Ivanovo","Navoloki",10951,57.47,41.96,104.
"Russia","Kabardin‐Balkar","Chegem Vtoroy",10951,43.6,43.6,453.
"Russia","Moskovskaya Oblast","Fryanovo",10948,56.13,38.45,147.
"Russia","Smolensk","Yelnya",10946,54.58,33.19,229.
"Russia","Sverdlovsk","Verkhnyaya Sinyachikha",10934,57.97,61.660000000000004,135.
"Russia","Novosibirsk","Kargat",10934,55.2,80.28,131.
"Russia","Yevrey","Obluche",10932,49.,131.08,334.
"Russia","Krasnodar","Starokorsunskaya",10915,45.06,39.31,37.
"Russia","Kabardin‐Balkar","Islamey",10899,43.68,43.46,538.
"Russia","Gorno‐Altay","Troitskoye",10887,52.980000000000004,84.66,234.
"Russia","Volgograd","Krasnooktyabrskiy",10882,48.870000000000005,44.76,19.
"Russia","Omsk","Muromtsevo",10881,56.370000000000005,75.25,76.
"Russia","Komi","Vorgashor",10876,67.59,63.800000000000004,199.
"Russia","Astrakhan'","Krasnyy Yar",10876,46.53,48.34,-24.
"Russia","Irkutsk","Novaya Igirma",10857,57.14,103.91,298.
"Russia","Tver'","Ozyornyy",10851,57.9,33.65,200.
"Russia","Chechnya","Samashki",10848,43.29,45.300000000000004,214.
"Russia","Novgorod","Soltsy",10844,58.13,30.330000000000002,38.
"Russia","Chuvash","Vurnary",10826,55.49,46.96,166.
"Russia","Kaliningrad","Raushiai",10812,54.94,20.150000000000002,31.
"Russia","Moskovskaya Oblast","Mikhnyovo",10798,55.13,37.95,176.
"Russia","Moskovskaya Oblast","Ozherele",10796,54.79,38.27,206.
"Russia","Krasnodar","Kazanskaya",10794,45.410000000000004,40.44,106.
"Russia","Krasnodar","Psebay",10786,44.11,40.77,676.
"Russia","Chechnya","Mayrtup",10778,43.2,46.13,209.
"Russia","Chelyabinsk","Pervomayskiy",10765,54.870000000000005,61.17,275.
"Russia","North Ossetia","Oktyabrskoye",10763,43.07,44.74,638.
"Russia","Tula","Pervomayskiy",10740,54.050000000000004,37.53,228.
"Russia","Chuvash","Yadrin",10735,55.94,46.21,69.
"Russia","Sakhalin","Nogliki",10734,51.83,143.11,11.
"Russia","Gorno‐Altay","Beloyarsk",10733,53.45,83.91,135.
"Russia","Omsk","Lyubinskiy",10727,55.15,72.7,111.
"Russia","Sverdlovsk","Verkhnyaya Tura",10717,58.36,59.82,226.
"Russia","Udmurt","Kez",10706,57.9,53.72,199.
"Russia","Kurgan","Shchuchye",10706,55.21,62.730000000000004,164.
"Russia","Moskovskaya Oblast","Vysokovsk",10701,56.32,36.550000000000004,204.
"Russia","Chita","Khilok",10685,51.35,110.45,796.
"Russia","Moskovskaya Oblast","Obukhovo",10675,54.83,38.28,205.
"Russia","Chelyabinsk","Lokomotivnyy",10663,53.,60.57,334.
"Russia","Kirov","Nolinsk",10654,57.56,49.94,89.
"Russia","Bashkortostan","Kushnarenkovo",10650,55.11,55.35,91.
"Russia","Murmansk","Kola",10644,68.92,33.11,146.
"Russia","Buryat","Taksimo",10639,56.34,114.88,618.
"Russia","Rostov","Samarskoye",10638,46.93,39.68,8.
"Russia","Tambov","Sosnovka",10638,53.230000000000004,41.37,129.
"Russia","Kabardin‐Balkar","Kenzhe",10636,43.5,43.56,515.
"Russia","Karelia","Nadvoitsy",10634,63.870000000000005,34.32,79.
"Russia","Sakha","Chulman",10634,56.85,124.91,718.
"Russia","Chelyabinsk","Uvelskiy",10625,54.44,61.36,232.
"Russia","Krasnodar","Staromyshastovskaya",10625,45.34,39.08,23.
"Russia","Rostov","Ayutinskiy",10623,47.77,40.14,104.
"Russia","Primor'ye","Pokrovka",10614,43.95,131.62,46.
"Russia","Tver'","Kuvshinovo",10612,57.04,34.18,246.
"Russia","Moskovskaya Oblast","Davydovo",10606,55.61,38.85,128.
"Russia","Karelia","Pudozh",10605,61.800000000000004,36.53,44.
"Russia","Tatarstan","Nizhnyaya Maktama",10600,54.85,52.370000000000005,155.
"Russia","Novosibirsk","Kolyvan",10584,55.31,82.74,136.
"Russia","Vologda","Belozyorsk",10577,60.04,37.79,110.
"Russia","Buryat","Zarechnyy",10565,51.85,107.53,496.
"Russia","Tula","Sokolniki",10563,54.050000000000004,38.47,213.
"Russia","Perm'","Yayva",10562,59.34,57.26,138.
"Russia","Mariy‐El","Sovetskiy",10561,56.76,48.480000000000004,148.
"Russia","Buryat","Onokhoy",10561,51.92,108.03,526.
"Russia","Kabardin‐Balkar","Zayukovo",10559,43.62,43.33,771.
"Russia","Chita","Gornyy",10559,62.0958,126.702,"null"
"Russia","Dagestan","Tarki",10554,42.94,47.49,353.
"Russia","Novosibirsk","Krasnozerskoye",10542,54.,79.24,144.
"Russia","Nizhegorod","Volodarsk",10510,56.230000000000004,43.19,75.
"Russia","Adygey","Tulskiy",10508,44.51,40.18,278.
"Russia","Kabardin‐Balkar","Khasanya",10495,43.43,43.58,612.
"Russia","Moskovskaya Oblast","Shakhovskaya",10491,56.03,35.51,241.
"Russia","Samara","Alekseyevka",10489,53.25,50.44,68.
"Russia","North Ossetia","Mikhaylovskoye",10479,43.1,44.64,610.
"Russia","Krasnodar","Staronizhestebliyevskaya",10478,45.37,38.44,6.
"Russia","Novgorod","Okulovka",10470,58.370000000000005,33.3,174.
"Russia","Novosibirsk","Ordynskoye",10465,54.370000000000005,81.9,126.
"Russia","Vologda","Totma",10461,59.97,42.76,116.
"Russia","Arkhangel'sk","Plesetsk",10460,62.72,40.28,131.
"Russia","Chelyabinsk","Bredy",10450,52.42,60.34,300.
"Russia","Irkutsk","Kuytun",10414,54.34,101.5,529.
"Russia","Chelyabinsk","Minyar",10412,55.07,57.56,186.
"Russia","Leningrad","Imeni Morozova",10412,59.980000000000004,31.03,20.
"Russia","Sverdlovsk","Volchansk",10408,59.93,60.07,223.
"Russia","Krasnodar","Novomikhaylovskiy",10405,44.25,38.85,26.
"Russia","Mordovia","Zubova Polyana",10389,54.08,42.83,117.
"Russia","Bashkortostan","Serafimovskiy",10360,54.43,53.82,169.
"Russia","Belgorod","Rakitnoye",10357,50.83,35.83,187.
"Russia","Krasnodar","Maryanskaya",10353,45.1,38.65,15.
"Russia","Krasnoyarsk","Solnechnyy",10350,56.1,92.87,237.
"Russia","Saratov","Bazarnyy Karabulak",10332,52.27,46.42,123.
"Russia","Dagestan","Yuzhno‐Sukhokumsk",10330,44.7,45.45,19.
"Russia","Omsk","Tyukalinsk",10326,55.870000000000005,72.2,117.
"Russia","Khabarovsk","Pereyaslavka",10320,47.96,134.84,48.
"Russia","Moskovskaya Oblast","Pravdinskiy",10317,56.07,37.85,186.
"Russia","Sverdlovsk","Pyshma",10310,56.95,63.24,76.
"Russia","Tula","Bolokhovo",10296,54.09,37.82,216.
"Russia","Chita","Zabaykalsk",10289,49.63,117.32000000000001,672.
"Russia","Omsk","Kormilovka",10283,55.,74.10000000000001,108.
"Russia","Lipetsk","Zadonsk",10280,52.38,38.93,165.
"Russia","Stavropol'","Aleksandriyskaya",10279,44.230000000000004,43.35,263.
"Russia","Ul'yanovsk","Isheyevka",10276,54.42,48.27,132.
"Russia","Krasnodar","Dvubratskiy",10272,45.24,39.800000000000004,74.
"Russia","Moskovskaya Oblast","Novopodrezkovo",10271,55.94,37.34,182.
"Russia","Chechnya","Assinovskaya",10270,43.24,45.18,277.
"Russia","Kemerovo","Sheregesh",10267,52.95,88.03,812.
"Russia","Sverdlovsk","Malysheva",10262,57.120000000000005,61.39,231.
"Russia","Sakhalin","Shakhtyorsk",10261,49.17,142.13,53.
"Russia","Perm'","Oktyabrskiy",10254,56.52,57.2,322.
"Russia","Volgograd","Novonikolayevskiy",10251,50.980000000000004,42.36,148.
"Russia","Chechnya","Alleroy",10247,43.21,46.28,336.
"Russia","Kurgan","Vargashi",10243,55.36,65.83,143.
"Russia","Kirov","Vakhrushi",10227,58.68,50.03,152.
"Russia","Chelyabinsk","Verkhneuralsk",10220,53.88,59.21,410.
"Russia","Stavropol'","Lysogorskaya",10219,44.11,43.28,353.
"Russia","Kalmyk","Gorodovikovsk",10215,46.14,41.97,76.
"Russia","Tambov","Inzhavino",10210,52.32,42.49,152.
"Russia","Komi","Vuktyl",10205,63.86,57.31,107.
"Russia","Rostov","Krivyanskaya",10203,47.4,40.17,4.
"Russia","Chelyabinsk","Oktyabrskiy",10198,55.08,61.800000000000004,188.
"Russia","Chuvash","Mariinskiy Posad",10197,56.11,47.72,93.
"Russia","Bashkortostan","Tolbazy",10183,54.01,55.9,230.
"Russia","Chechnya","Staryye Atagi",10183,43.12,45.730000000000004,280.
"Russia","Kaluga","Tarusa",10180,54.72,37.18,162.
"Russia","Amur","Yekaterinoslavka",10178,50.370000000000005,129.11,226.
"Russia","Chechnya","Alkhan‐Kala",10168,43.26,45.54,174.
"Russia","Novgorod","Pankovka",10168,58.5,31.220000000000002,21.
"Russia","Krasnodar","Sovetskaya",10166,44.78,41.17,285.
"Russia","Novosibirsk","Moshkovo",10149,55.300000000000004,83.61,218.
"Russia","Bryansk","Belyye Berega",10146,53.21,34.67,184.
"Russia","Moskovskaya Oblast","Bolshevo",10133,55.93,37.85,164.
"Russia","Moskovskaya Oblast","Oktyabrskiy",10130,55.61,37.97,132.
"Russia","Irkutsk","Zalari",10127,53.56,102.51,444.
"Russia","Sakha","Pokrovsk",10126,61.480000000000004,129.13,128.
"Russia","Novosibirsk","Gornyy",10119,55.13,83.87,210.
"Russia","Orenburg","Tyulgan",10105,52.34,56.160000000000004,314.
"Russia","Chelyabinsk","Argayash",10096,55.49,60.88,253.
"Russia","Vologda","Ustyuzhna",10085,58.85,36.43,112.
"Russia","Saratov","Ozinki",10085,51.17,49.67,90.
"Russia","Tatarstan","Alekseyevskoye",10083,55.31,50.11,57.
"Russia","Khanty‐Mansiy","Novoagansk",10066,61.97,76.63,72.
"Russia","Moskovskaya Oblast","Nekrasovskiy",10066,56.07,37.5,183.
"Russia","Rostov","Sholokhovskiy",10062,48.27,41.13,101.
"Russia","Samara","Bolshaya Glushitsa",10055,52.38,50.480000000000004,56.
"Russia","Nizhegorod","Ardatov",10047,55.24,43.09,146.
"Russia","Rostov","Gigant",10034,46.51,41.34,64.
"Russia","Kalmyk","Troitskoye",10025,46.42,44.26,74.
"Russia","Amur","Arkhara",10023,49.42,130.12,134.
"Russia","Sverdlovsk","Mikhaylovsk",10020,56.44,59.11,255.
"Russia","Amur","Skovorodino",10015,53.980000000000004,123.92,397.
"Russia","Lipetsk","Dobrinka",9998,52.17,40.47,153.
"Russia","Ingush","Dolakovo",9994,43.230000000000004,44.6,495.
"Russia","Tuva","Kaa‐Khem",9990,51.68,94.73,706.
"Russia","Kirov","Urzhum",9981,57.11,49.99,100.
"Russia","Kemerovo","Malinovka",9981,53.4,87.28,280.
"Russia","Sakha","Nyurba",9981,63.28,118.33,119.
"Russia","Smolensk","Dorogobuzh",9966,54.93,33.29,207.
"Russia","Moskovskaya Oblast","Pervomayskiy",9964,55.52,37.22,163.
"Russia","Tver'","Zapadnaya Dvina",9962,56.26,32.08,192.
"Russia","Khanty‐Mansiy","Solnechnyy",9954,50.583333333,137.033333333,"null"
"Russia","Sakha","Vilyuysk",9949,63.76,121.62,117.
"Russia","Tyumen'","Bogandinskiy",9930,56.9,65.88,74.
"Russia","Sverdlovsk","Svobodnyy",9920,58.03,60.370000000000005,230.
"Russia","Saratov","Aleksandrov Gay",9919,50.15,48.57,20.
"Russia","Krasnodar","Novomyshastovskaya",9916,45.2,38.58,11.
"Russia","Omsk","Moskalyonki",9910,54.95,71.93,116.
"Russia","Chelyabinsk","Varna",9906,53.4,60.97,247.
"Russia","Kurgan","Makushino",9901,55.21,67.24,132.
"Russia","Orenburg","Ilek",9898,51.53,53.38,61.
"Russia","Omsk","Luzino",9897,54.95,73.03,107.
"Russia","Mariy‐El","Morki",9884,56.43,49.,108.
"Russia","Chechnya","Sernovodskoye",9882,43.31,45.160000000000004,264.
"Russia","Penza","Bessonovka",9880,53.31,45.04,134.
"Russia","Astrakhan'","Ikryanoye",9880,46.09,47.730000000000004,-22.
"Russia","Udmurt","Kizner",9847,56.28,51.51,76.
"Russia","Tula","Leninskiy",9834,54.300000000000004,37.47,160.
"Russia","Moskovskaya Oblast","Kokoshkino",9807,55.6,37.17,188.
"Russia","Ivanovo","Puchezh",9791,56.980000000000004,43.17,96.
"Russia","Bashkortostan","Mesyagutovo",9780,55.53,58.24,243.
"Russia","Komi","Zheshart",9777,62.06,49.56,71.
"Russia","Sverdlovsk","Sosva",9775,59.18,61.84,82.
"Russia","Murmansk","Revda",9773,67.94,34.56,252.
"Russia","Perm'","Ugleuralskiy",9770,58.95,57.59,398.
"Russia","Kaluga","Yermolino",9769,55.22,36.6,184.
"Russia","Volgograd","Serafimovich",9764,49.58,42.730000000000004,104.
"Russia","Orel","Naryshkino",9761,52.97,35.730000000000004,212.
"Russia","Arkhangel'sk","Oktyabrskiy",9758,61.08,43.25,121.
"Russia","Tver'","Maksatikha",9755,57.800000000000004,35.88,140.
"Russia","Khabarovsk","Zavety Ilicha",9755,49.03,140.28,36.
"Russia","Bashkortostan","Buzdyak",9752,54.58,54.550000000000004,178.
"Russia","Vladimir","Suzdal",9749,56.43,40.44,109.
"Russia","Tomsk","Melnikovo",9745,56.550000000000004,84.08,89.
"Russia","Belgorod","Prokhorovka",9735,51.04,36.730000000000004,254.
"Russia","Tatarstan","Aksubay",9733,54.84,50.78,128.
"Russia","Primor'ye","Yaroslavskiy",9716,44.19,132.23,116.
"Russia","Chechnya","Gekhi",9714,43.17,45.47,220.
"Russia","Komi","Vylgort",9707,61.620000000000005,50.7,138.
"Russia","Smolensk","Rudnya",9697,54.96,31.09,186.
"Russia","Mordovia","Chaunza",9680,54.4,45.78,237.
"Russia","Samara","Novosemeykino",9679,53.38,50.370000000000005,199.
"Russia","Saratov","Dergachi",9678,51.230000000000004,48.77,52.
"Russia","Orenburg","Perevolotskiy",9667,51.88,54.2,172.
"Russia","Penza","Bashmakovo",9665,53.21,43.04,196.
"Russia","Mordovia","Romodanovo",9648,54.43,45.33,116.
"Russia","Murmansk","Roslyakovo",9648,69.05,33.22,20.
"Russia","Astrakhan'","Volodarskiy",9643,46.4,48.54,-24.
"Russia","Irkutsk","Biryusinsk",9642,55.96,97.81,314.
"Russia","Chechnya","Znamenskoye",9641,43.68,45.13,91.
"Russia","Tatarstan","Aktyubinskiy",9634,54.82,52.78,289.
"Russia","Tula","Lipki",9631,53.94,37.71,221.
"Russia","Belgorod","Rovenki",9622,49.92,38.89,80.
"Russia","Karelia","Olonets",9614,60.980000000000004,32.97,25.
"Russia","Krasnodar","Plastunovskaya",9604,45.29,39.27,31.
"Russia","Chechnya","Shelkovskaya",9602,43.51,46.34,15.
"Russia","Chita","Novokruchininskiy",9599,51.78,113.77,656.
"Russia","Tyumen'","Omutinskoye",9595,56.480000000000004,67.67,116.
"Russia","Leningrad","Mga",9589,59.75,31.07,30.
"Russia","Kabardin‐Balkar","Sarmakovo",9588,43.75,43.2,689.
"Russia","Rostov","Sokolovo‐Kundryuchenskiy",9585,47.84,39.94,136.
"Russia","Perm'","Kujeda",9565,56.43,55.58,128.
"Russia","Moskovskaya Oblast","Bogorodskoye",9562,56.550000000000004,37.88,188.
"Russia","Buryat","Bichura",9559,50.59,107.60000000000001,653.
"Russia","Mordovia","Krasnoslobodsk",9556,54.42,43.79,158.
"Russia","Orenburg","Dombarovskiy",9556,50.76,59.54,265.
"Russia","Yamal‐Nenets","Urengoy",9554,65.97,78.42,15.
"Russia","Bryansk","Suzyomka",9547,52.32,34.07,164.
"Russia","Gorno‐Altay","Rodino",9537,52.5,80.25,159.
"Russia","Bashkortostan","Bakaly",9532,55.18,53.800000000000004,116.
"Russia","Rostov","Oblivskaya",9528,48.54,42.49,61.
"Russia","Chelyabinsk","Miasskoye",9524,55.28,61.9,153.
"Russia","Kirov","Raduzhnyy",9514,59.480000000000004,49.65,179.
"Russia","Primor'ye","Kirovskiy",9510,45.09,133.51,104.
"Russia","Pskov","Dno",9505,57.83,29.98,67.
"Russia","Moskovskaya Oblast","Vatutinki",9502,55.5,37.33,160.
"Russia","Nizhegorod","Shatki",9466,55.19,44.13,133.
"Russia","Mordovia","Ardatov",9458,54.870000000000005,46.230000000000004,85.
"Russia","Krasnoyarsk","Aban",9448,56.68,96.06,240.
"Russia","Gorno‐Altay","Smolenskoye",9431,52.33,85.08,181.
"Russia","Leningrad","Kuzmolovskiy",9419,60.09,30.5,25.
"Russia","Krasnodar","Taman",9417,45.21,36.71,19.
"Russia","Krasnodar","Ivanovskaya",9415,45.32,38.660000000000004,11.
"Russia","Nizhegorod","Vetluga",9394,57.86,45.78,120.
"Russia","Ingush","Verkhniye Achaluki",9393,43.35,44.7,468.
"Russia","Chita","Atamanovka",9382,51.93,113.63,642.
"Russia","Kabardin‐Balkar","Zalukokoazhe",9377,43.9,43.22,605.
"Russia","Krasnodar","Vityazevo",9373,44.99,37.27,15.
"Russia","Chuvash","Ibresi",9366,55.300000000000004,47.04,198.
"Russia","Leningrad","Ulyanovka",9365,59.63,30.77,43.
"Russia","Bashkortostan","Verkhneyarkeyevo",9357,55.45,54.32,97.
"Russia","Voronezh","Kamenka",9356,51.32,42.77,158.
"Russia","Tula","Mendeleyevskiy",9350,54.15,37.58,229.
"Russia","Chita","Mogoytuy",9349,51.28,114.92,647.
"Russia","Leningrad","Roshchino",9346,60.25,29.61,87.
"Russia","Smolensk","Pochinok",9337,54.4,32.45,199.
"Russia","Perm'","Zvyozdnyy",9331,57.6,56.300000000000004,205.
"Russia","Krasnoyarsk","Nizhnyaya Poyma",9324,56.160000000000004,97.19,267.
"Russia","Chita","Yasnogorsk",9324,50.93,115.55,676.
"Russia","Stavropol'","Grigoropolisskaya",9310,45.300000000000004,41.06,141.
"Russia","Rostov","Veshenskaya",9303,49.63,41.72,70.
"Russia","Gorno‐Altay","Topchikha",9301,52.82,83.12,202.
"Russia","Samara","Povolzhskiy",9296,53.58,49.77,158.
"Russia","Rostov","Gornyatskiy",9292,48.29,40.89,52.
"Russia","Pskov","Novosokolniki",9286,56.34,30.150000000000002,137.
"Russia","Chechnya","Germenchuk",9285,43.19,45.92,185.
"Russia","Gorno‐Altay","Mamontovo",9275,52.72,81.62,206.
"Russia","Khakass","Shira",9274,54.49,89.96000000000001,481.
"Russia","Vladimir","Balakirevo",9268,56.5,38.85,213.
"Russia","Sakha","Olyokminsk",9266,60.38,120.2,146.
"Russia","Moskovskaya Oblast","Andreyevka",9261,55.99,37.13,217.
"Russia","Ivanovo","Komsomolsk",9213,57.03,40.38,148.
"Russia","Kemerovo","Salair",9209,54.22,85.78,307.
"Russia","Gorno‐Altay","Klyuchi",9205,52.27,79.17,136.
"Russia","Chechnya","Katyr‐Yurt",9202,43.17,45.37,233.
"Russia","Khanty‐Mansiy","Igrim",9199,63.190000000000005,64.42,9.
"Russia","Mordovia","Torbeyevo",9194,54.07,43.25,196.
"Russia","Kemerovo","Tisul",9178,55.76,88.31,206.
"Russia","Stavropol'","Pokoynoye",9175,44.81,44.25,87.
"Russia","Nizhegorod","Perevoz",9169,55.6,44.54,98.
"Russia","Tver'","Staritsa",9166,56.51,34.93,171.
"Russia","Khabarovsk","Nekrasovka",9159,48.35,135.23,80.
"Russia","Vladimir","Kosterevo",9153,55.93,39.62,116.
"Russia","Krasnodar","Arkhangelskaya",9144,45.68,40.28,55.
"Russia","Leningrad","Imeni Sverdlova",9138,59.78,30.67,15.
"Russia","Orenburg","Energetik",9136,51.75,58.800000000000004,265.
"Russia","Kirov","Pervomayskiy",9121,58.68,50.160000000000004,165.
"Russia","Samara","Borskoye",9119,53.03,51.72,60.
"Russia","Khakass","Cheryomushki",9114,52.84,91.39,446.
"Russia","Mariy‐El","Sernur",9113,56.93,49.15,163.
"Russia","Yamal‐Nenets","Purpe",9099,64.48,76.69,49.
"Russia","Primor'ye","Mikhaylovka",9097,50.0667,43.2333,"null"
"Russia","Mordovia","Lukhovka",9084,54.15,45.230000000000004,173.
"Russia","Krasnodar","Gostagaevskaya",9078,45.02,37.5,57.
"Russia","Dagestan","Pervomayskoye",9073,43.92,46.71,-12.
"Russia","Adygey","Krasnogvardeyskoye",9071,45.14,39.58,34.
"Russia","Stavropol'","Marinskaya",9065,43.88,43.49,433.
"Russia","Nizhegorod","Neklyudovo",9052,56.410000000000004,43.980000000000004,72.
"Russia","Perm'","Novyye Lyady",9050,58.050000000000004,56.6,186.
"Russia","Vladimir","Krasnaya Gorbatka",9044,55.88,41.76,119.
"Russia","Tver'","Andreapol",9039,56.65,32.27,220.
"Russia","Astrakhan'","Liman",9039,45.79,47.230000000000004,-23.
"Russia","Tambov","Dmitriyevka",9035,52.88,40.79,139.
"Russia","Kirov","Malmyzh",9030,56.52,50.69,78.
"Russia","Krasnodar","Trudobelikovskiy",9013,45.27,38.160000000000004,5.
"Russia","Novosibirsk","Krivodanovka",9006,55.09,82.65,97.
"Russia","Tula","Plekhanovo",9006,54.230000000000004,37.45,164.
"Russia","Moskovskaya Oblast","Bykovo",9005,55.63,38.050000000000004,132.
"Russia","City of St. Petersburg","Pontonnyy",9001,59.78,30.63,15.
"Russia","Tula","Dubovka",8992,53.95,38.07,217.
"Russia","Tuva","Chadan",8991,51.28,91.58,816.
"Russia","Orenburg","Svetlyy",8976,50.82,60.85,303.
"Russia","Amur","Novobureyskiy",8970,49.78,129.88,111.
"Russia","Bashkortostan","Burayevo",8963,55.84,55.410000000000004,117.
"Russia","Khakass","Belyy Yar",8951,53.6,91.39,260.
"Russia","Rostov","Tarasovskiy",8949,48.730000000000004,40.36,78.
"Russia","Stavropol'","Vinsady",8949,44.08,42.97,604.
"Russia","Rostov","Zavodskoy",8948,48.410000000000004,40.27,29.
"Russia","Moskovskaya Oblast","Serebryanye Prudy",8939,54.46,38.72,143.
"Russia","Khabarovsk","Knyaze‐Volkonskoye",8936,48.47,135.47,55.
"Russia","Krasnodar","Rodnikovskaya",8925,44.76,40.67,216.
"Russia","Dagestan","Aksay",8924,43.37,46.45,33.
"Russia","Krasnoyarsk","Yermakovskoye",8910,53.28,92.39,310.
"Russia","Primor'ye","Sibirtsevo",8904,44.26,132.44,88.
"Russia","Primor'ye","Preobrazheniye",8902,42.910000000000004,133.9,32.
"Russia","Chechnya","Alkhan‐Yurt",8879,43.230000000000004,45.57,167.
"Russia","Stavropol'","Zolskaya",8865,43.910000000000004,43.300000000000004,533.
"Russia","Nizhegorod","Sosnovskoye",8862,55.800000000000004,43.160000000000004,156.
"Russia","Gorno‐Altay","Rebrikha",8858,53.08,82.33,216.
"Russia","Irkutsk","Meget",8836,52.42,104.05,432.
"Russia","Sakha","Tommot",8829,58.97,126.28,273.
"Russia","Moskovskaya Oblast","Mamontovka",8817,55.980000000000004,37.82,161.
"Russia","Rostov","Vesyolyy",8807,47.17,38.75,20.
"Russia","Krasnodar","Fastovetskaya",8806,45.92,40.160000000000004,44.
"Russia","Leningrad","Novoye Devyatkino",8802,60.050000000000004,30.47,23.
"Russia","Sakha","Zhatay",8801,62.160000000000004,129.83,91.
"Russia","Penza","Belinskiy",8798,52.96,43.410000000000004,171.
"Russia","Tambov","Znamenka",8785,52.39,41.5,130.
"Russia","Krasnodar","Novovelichkovskaya",8774,45.27,38.84,18.
"Russia","Ul'yanovsk","Kuzovatovo",8765,53.54,47.67,243.
"Russia","Mordovia","Insar",8761,53.870000000000005,44.37,150.
"Russia","Chechnya","Novyye Atagi",8760,43.13,45.78,266.
"Russia","Lipetsk","Lev Tolstoy",8755,53.21,39.45,209.
"Russia","Moskovskaya Oblast","Lesnoy",8753,56.07,37.92,178.
"Russia","Belgorod","Severnyy",8745,50.6,36.58,125.
"Russia","Sakha","Ust‐Nera",8736,64.57000000000001,143.20000000000002,493.
"Russia","Dagestan","Mamedkala",8728,42.17,48.120000000000005,24.
"Russia","Kamchatka","Milkovo",8726,54.72,158.62,174.
"Russia","Stavropol'","Novoselitskoye",8723,44.75,43.44,175.
"Russia","Chelyabinsk","Potanino",8717,55.18,61.620000000000005,206.
"Russia","Pskov","Strugi Krasnyye",8711,58.27,29.13,125.
"Russia","Dagestan","Komsomolskoye",8710,43.2,46.9,56.
"Russia","Stavropol'","Yutsa",8702,43.96,43.01,688.
"Russia","Moskovskaya Oblast","Razvilka",8701,55.59,37.75,169.
"Russia","Krasnoyarsk","Kozulka",8688,56.160000000000004,91.38,313.
"Russia","Kurgan","Kargapolye",8665,55.95,64.4,71.
"Russia","Sverdlovsk","Yelanskiy",8653,56.82,62.5,89.
"Russia","Krasnodar","Nizhnebakanskaya",8648,44.87,37.83,94.
"Russia","Novosibirsk","Chany",8641,55.31,76.75,108.
"Russia","Sakha","Suntar",8639,62.160000000000004,117.63,132.
"Russia","Belgorod","Proletarskiy",8629,50.79,35.77,211.
"Russia","Perm'","Uralskiy",8592,57.94,55.56,85.
"Russia","Krasnodar","Temirgoyevskaya",8588,45.11,40.28,89.
"Russia","Saratov","Samoylovka",8584,51.18,43.7,126.
"Russia","Vologda","Nikolsk",8578,59.5,45.45,148.
"Russia","Tomsk","Kargasok",8572,59.06,80.86,55.
"Russia","Tatarstan","Bolgar",8571,54.94,49.06,79.
"Russia","Chechnya","Naurskaya",8550,43.65,45.31,79.
"Russia","North Ossetia","Chermen",8550,43.15,44.71,575.
"Russia","North Ossetia","Kizlyar",8544,43.7,44.6,161.
"Russia","Ivanovo","Novotalitsy",8543,57.02,40.87,126.
"Russia","Krasnodar","Pereyaslovskaya",8542,45.84,39.03,15.
"Russia","Omsk","Sargatskoye",8530,55.620000000000005,73.5,82.
"Russia","Kaluga","Belousovo",8529,55.09,36.68,178.
"Russia","Kurgan","Mishkino",8528,55.34,63.92,152.
"Russia","Astrakhan'","Verkhniy Baskunchak",8521,48.230000000000004,46.72,31.
"Russia","Krasnodar","Rayevskaya",8518,44.83,37.550000000000004,140.
"Russia","Komi","Yarega",8491,63.43,53.56,162.
"Russia","Krasnoyarsk","Taseyevo",8479,57.22,94.9,141.
"Russia","Penza","Pachelma",8472,53.24,43.35,203.
"Russia","Krasnoyarsk","Nizhniy Ingash",8458,56.2,96.53,254.
"Russia","Rostov","Koksovyy",8458,48.2,40.6,131.
"Russia","Tomsk","Togur",8442,58.36,82.83,60.
"Russia","Komi","Krasnozatonskiy",8438,61.660000000000004,50.88,99.
"Russia","Krasnodar","Rogovskaya",8435,45.730000000000004,38.74,11.
"Russia","Stavropol'","Nadezhda",8426,44.1,44.6,159.
"Russia","Vologda","Molochnoye",8421,59.28,39.68,116.
"Russia","Leningrad","Novaya Ladoga",8413,60.1,32.31,12.
"Russia","Bryansk","Dubrovka",8412,53.7,33.51,195.
"Russia","Tomsk","Belyy Yar",8412,58.44,85.06,82.
"Russia","Penza","Kolyshley",8410,52.7,44.53,206.
"Russia","Perm'","Suksun",8409,57.15,57.39,167.
"Russia","Karelia","Lakhdenpokhya",8406,61.52,30.18,29.
"Russia","Sverdlovsk","Lobva",8403,59.19,60.49,89.
"Russia","Bashkortostan","Mrakovo",8394,52.72,56.620000000000005,235.
"Russia","Chelyabinsk","Mezhozyornyy",8385,54.15,59.370000000000005,516.
"Russia","Khanty‐Mansiy","Vysokiy",8372,44.7856,40.9106,"null"
"Russia","Primor'ye","Tavrichanka",8352,43.34,131.86,12.
"Russia","Komi","Troitsko‐Pechorsk",8330,62.7,56.2,100.
"Russia","Ryazan'","Spassk‐Ryazanskiy",8317,54.410000000000004,40.38,106.
"Russia","Chechnya","Kalinovskaya",8305,43.58,45.52,68.
"Russia","Volgograd","Bykovo",8293,49.77,45.38,32.
"Russia","Rostov","Staraya Stanitsa",8284,48.35,40.28,27.
"Russia","Kirov","Murygino",8282,58.74,49.46,109.
"Russia","Perm'","Barda",8279,56.93,55.58,130.
"Russia","Penza","Srednyaya Yelyuzan",8279,53.03,45.95,243.
"Russia","Voronezh","Verkhniy Mamon",8278,50.17,40.410000000000004,80.
"Russia","Mordovia","Lyambir",8274,54.28,45.12,180.
"Russia","Moskovskaya Oblast","Ilyinskiy",8270,55.620000000000005,38.1,133.
"Russia","Primor'ye","Novoshakhtinskiy",8269,43.93,132.,30.
"Russia","Smolensk","Demidov",8266,55.27,31.51,158.
"Russia","Penza","Gorodishche",8253,53.27,45.7,204.
"Russia","Chita","Kokuy",8253,52.21,117.55,458.
"Russia","Mordovia","Temnikov",8252,54.63,43.21,120.
"Russia","Sakhalin","Tymovskoye",8252,50.85,142.66,101.
"Russia","Kabardin‐Balkar","Argudan",8250,43.42,43.92,356.
"Russia","Dagestan","Chontaul",8241,43.300000000000004,46.86,7.
"Russia","Nizhegorod","Ilinogorsk",8236,56.230000000000004,42.99,81.
"Russia","Samara","Sergiyevsk",8218,53.94,51.15,48.
"Russia","Penza","Lunino",8214,53.59,45.230000000000004,131.
"Russia","Dagestan","Shamkhal",8208,43.06,47.33,6.
"Russia","Kemerovo","Yagunovskiy",8199,55.29,85.98,152.
"Russia","Tyumen'","Abatskoye",8195,56.29,70.46000000000001,74.
"Russia","Tver'","Vesyegonsk",8185,58.67,37.27,100.
"Russia","Novgorod","Parfino",8177,57.97,31.650000000000002,27.
"Russia","Krasnodar","Chernomorskiy",8172,44.85,38.49,75.
"Russia","Krasnodar","Arkhipo‐Osipovka",8170,44.37,38.53,6.
"Russia","Bryansk","Mglin",8169,53.06,32.84,176.
"Russia","Dagestan","Sergokala",8165,42.45,47.660000000000004,533.
"Russia","Tatarstan","Aktanysh",8163,55.72,54.09,73.
"Russia","Tatarstan","Nizhniye Vyazovyye",8156,55.800000000000004,48.53,60.
"Russia","Kursk","Dmitriyev‐Lgovskiy",8149,52.120000000000005,35.09,153.
"Russia","Tula","Sovetsk",8133,53.92,37.56,245.
"Russia","Krasnodar","Smolenskaya",8130,44.79,38.81,35.
"Russia","Orel","Verkhovye",8125,52.82,37.24,253.
"Russia","Kirov","Chalturin",8123,58.54,48.9,118.
"Russia","Bashkortostan","Krasnokholmskiy",8117,55.99,55.050000000000004,106.
"Russia","Kemerovo","Krapivinskiy",8115,55.01,86.81,146.
"Russia","Smolensk","Sychevka",8112,55.83,34.28,203.
"Russia","Chita","Priargunsk",8111,50.35,119.10000000000001,511.
"Russia","Vologda","Kirillov",8108,59.870000000000005,38.38,126.
"Russia","Primor'ye","Dunay",8106,42.88,132.34,30.
"Russia","Dagestan","Semender",8092,42.9883,47.4036,"null"
"Russia","Ivanovo","Lezhnyovo",8088,56.78,40.89,105.
